%time,field.header.seq,field.header.stamp,field.header.frame_id,field.drive.steering_angle,field.drive.steering_angle_velocity,field.drive.speed,field.drive.acceleration,field.drive.jerk
1.74258808415773E+018,24316,0,,0,0,0,0,0
1.74258808418013E+018,24317,0,,0,0,0,0,0
1.74258808420932E+018,24318,0,,0,0,0,0,0
1.74258808422777E+018,24319,0,,0,0,0.11686822772,0,0
1.74258808425934E+018,24320,0,,0,0,0.39143845439,0,0
1.74258808428315E+018,24321,0,,0,0,0.516243100166,0,0
1.74258808430894E+018,24322,0,,0,0,0.76585239172,0,0
1.742588084328E+018,24323,0,,0,0,0.815774202347,0,0
1.7425880843568E+018,24324,0,,0,0,0.865696072578,0,0
1.74258808437834E+018,24325,0,,0,0,0.865696072578,0,0
1.74258808440863E+018,24326,0,,0,0,0.865696072578,0,0
1.74258808443036E+018,24327,0,,0,0,0.865696072578,0,0
1.74258808445407E+018,24328,0,,0,0,0.865696072578,0,0
1.74258808448052E+018,24329,0,,0,0,0.865696072578,0,0
1.74258808450613E+018,24330,0,,0,0,0.865696072578,0,0
1.74258808452764E+018,24331,0,,0,0,0.865696072578,0,0
1.74258808456125E+018,24332,0,,0,0,0.865696072578,0,0
1.74258808458161E+018,24333,0,,0,0,0.865696072578,0,0
1.74258808460766E+018,24334,0,,0,0,0.865696072578,0,0
1.74258808462923E+018,24335,0,,0,0,0.865696072578,0,0
1.74258808465841E+018,24336,0,,0,0,0.865696072578,0,0
1.74258808468615E+018,24337,0,,0,0,0.865696072578,0,0
1.74258808470216E+018,24338,0,,0,0,0.865696072578,0,0
1.74258808472995E+018,24339,0,,0,0,0.865696072578,0,0
1.74258808475244E+018,24340,0,,0,0,0.865696072578,0,0
1.7425880847783E+018,24341,0,,0,0,0.865696072578,0,0
1.74258808480315E+018,24342,0,,0,0,0.865696072578,0,0
1.74258808482714E+018,24343,0,,0,0,0.865696072578,0,0
1.74258808485286E+018,24344,0,,0,0,0.865696072578,0,0
1.74258808487726E+018,24345,0,,0,0,0.865696072578,0,0
1.74258808490219E+018,24346,0,,0,0,0.865696072578,0,0
1.74258808492655E+018,24347,0,,0,0,0.865696072578,0,0
1.7425880849523E+018,24348,0,,0,0,0.865696072578,0,0
1.74258808497721E+018,24349,0,,0,0,0.865696072578,0,0
1.74258808500218E+018,24350,0,,0,0,0.865696072578,0,0
1.74258808502717E+018,24351,0,,0,0,0.865696072578,0,0
1.74258808505225E+018,24352,0,,0,0,0.865696072578,0,0
1.74258808507745E+018,24353,0,,0,0,0.865696072578,0,0
1.74258808510234E+018,24354,0,,0,0,0.865696072578,0,0
1.74258808512802E+018,24355,0,,0,0,0.865696072578,0,0
1.74258808515356E+018,24356,0,,0,0,0.865696072578,0,0
1.74258808517727E+018,24357,0,,0,0,0.865696072578,0,0
1.7425880852034E+018,24358,0,,0,0,0.865696072578,0,0
1.74258808522793E+018,24359,0,,0,0,0.865696072578,0,0
1.74258808525404E+018,24360,0,,0,0,0.865696072578,0,0
1.74258808527855E+018,24361,0,,0,0,0.865696072578,0,0
1.74258808530262E+018,24362,0,,0,0,0.865696072578,0,0
1.74258808532783E+018,24363,0,,0,0,0.865696072578,0,0
1.74258808535218E+018,24364,0,,0,0,0.865696072578,0,0
1.74258808537737E+018,24365,0,,0,0,0.865696072578,0,0
1.74258808540268E+018,24366,0,,0,0,0.865696072578,0,0
1.74258808542797E+018,24367,0,,0.0217317808419,0,0.865696072578,0,0
1.74258808545297E+018,24368,0,,0.0896255075932,0,0.865696072578,0,0
1.74258808547671E+018,24369,0,,0.185819208622,0,0.865696072578,0,0
1.74258808550185E+018,24370,0,,0.245237141848,0,0.865696072578,0,0
1.74258808552724E+018,24371,0,,0.253723859787,0,0.865696072578,0,0
1.74258808555175E+018,24372,0,,0.265039473772,0,0.865696072578,0,0
1.74258808558405E+018,24373,0,,0.304644137621,0,0.865696072578,0,0
1.74258808560546E+018,24374,0,,0.31313085556,0,0.865696072578,0,0
1.74258808563484E+018,24375,0,,0.332933187485,0,0.865696072578,0,0
1.74258808565168E+018,24376,0,,0.332933187485,0,0.865696072578,0,0
1.74258808568282E+018,24377,0,,0.332933187485,0,0.865696072578,0,0
1.74258808570242E+018,24378,0,,0.332933187485,0,0.865696072578,0,0
1.74258808572965E+018,24379,0,,0.332933187485,0,0.865696072578,0,0
1.74258808575233E+018,24380,0,,0.332933187485,0,0.865696072578,0,0
1.74258808577737E+018,24381,0,,0.332933187485,0,0.865696072578,0,0
1.74258808580913E+018,24382,0,,0.332933187485,0,0.865696072578,0,0
1.74258808582755E+018,24383,0,,0.332933187485,0,0.865696072578,0,0
1.74258808585644E+018,24384,0,,0.253723859787,0,0.865696072578,0,0
1.74258808588599E+018,24385,0,,0.117925480008,0,0.865696072578,0,0
1.74258808590757E+018,24386,0,,0,0,0.865696072578,0,0
1.74258808592691E+018,24387,0,,0,0,0.865696072578,0,0
1.74258808595695E+018,24388,0,,0,0,0.865696072578,0,0
1.74258808597708E+018,24389,0,,0,0,0.865696072578,0,0
1.74258808600357E+018,24390,0,,0,0,0.865696072578,0,0
1.7425880860319E+018,24391,0,,0,0,0.865696072578,0,0
1.74258808605707E+018,24392,0,,0,0,0.865696072578,0,0
1.74258808608705E+018,24393,0,,0,0,0.865696072578,0,0
1.74258808610448E+018,24394,0,,0,0,0.865696072578,0,0
1.74258808613161E+018,24395,0,,0,0,0.865696072578,0,0
1.74258808615194E+018,24396,0,,0,0,0.865696072578,0,0
1.74258808618063E+018,24397,0,,0,0,0.865696072578,0,0
1.74258808621052E+018,24398,0,,0,0,0.865696072578,0,0
1.74258808623237E+018,24399,0,,0,0,0.865696072578,0,0
1.74258808625746E+018,24400,0,,0,0,0.865696072578,0,0
1.74258808628044E+018,24401,0,,0,0,0.865696072578,0,0
1.74258808630865E+018,24402,0,,0,0,0.865696072578,0,0
1.74258808632815E+018,24403,0,,0,0,0.865696072578,0,0
1.74258808635343E+018,24404,0,,0,0,0.865696072578,0,0
1.74258808638088E+018,24405,0,,0,0,0.865696072578,0,0
1.74258808640421E+018,24406,0,,0,0,0.865696072578,0,0
1.74258808642904E+018,24407,0,,0,0,0.865696072578,0,0
1.74258808645977E+018,24408,0,,0,0,0.865696072578,0,0
1.74258808648392E+018,24409,0,,0,0,0.865696072578,0,0
1.74258808650818E+018,24410,0,,0,0,0.865696072578,0,0
1.74258808652879E+018,24411,0,,0,0,0.865696072578,0,0
1.74258808655477E+018,24412,0,,0,0,0.890657007694,0,0
1.74258808658217E+018,24413,0,,0,0,0.890657007694,0,0
1.74258808660661E+018,24414,0,,0,0,0.890657007694,0,0
1.74258808662837E+018,24415,0,,0,0,0.890657007694,0,0
1.74258808666283E+018,24416,0,,0,0,0.890657007694,0,0
1.74258808668609E+018,24417,0,,0,0,0.890657007694,0,0
1.74258808670742E+018,24418,0,,0,0,0.890657007694,0,0
1.74258808672875E+018,24419,0,,0,0,0.890657007694,0,0
1.7425880867582E+018,24420,0,,0,0,0.890657007694,0,0
1.74258808678213E+018,24421,0,,0,0,0.890657007694,0,0
1.74258808680622E+018,24422,0,,0,0,0.890657007694,0,0
1.74258808682695E+018,24423,0,,0,0,0.890657007694,0,0
1.74258808685206E+018,24424,0,,0,0,0.890657007694,0,0
1.74258808687805E+018,24425,0,,0,0,0.890657007694,0,0
1.74258808690664E+018,24426,0,,0,0,0.890657007694,0,0
1.74258808692701E+018,24427,0,,0,0,0.890657007694,0,0
1.74258808695141E+018,24428,0,,0,0,0.890657007694,0,0
1.7425880869864E+018,24429,0,,0,0,0.890657007694,0,0
1.74258808701077E+018,24430,0,,0,0,0.890657007694,0,0
1.74258808703237E+018,24431,0,,0,0,0.940675199032,0,0
1.74258808705303E+018,24432,0,,0,0,0.940675199032,0,0
1.74258808708211E+018,24433,0,,0,0,0.965636193752,0,0
1.74258808711104E+018,24434,0,,0,0,0.965636193752,0,0
1.74258808713185E+018,24435,0,,0,0,1.01555800438,0,0
1.74258808715665E+018,24436,0,,0,0,1.06547987461,0,0
1.74258808718059E+018,24437,0,,0,0,1.09044075012,0,0
1.74258808720175E+018,24438,0,,0,0,1.09044075012,0,0
1.74258808722883E+018,24439,0,,0,0,1.09044075012,0,0
1.74258808725847E+018,24440,0,,0,0,1.09044075012,0,0
1.74258808728508E+018,24441,0,,0,0,1.09044075012,0,0
1.74258808730699E+018,24442,0,,0,0,1.09044075012,0,0
1.7425880873295E+018,24443,0,,0,0,1.09044075012,0,0
1.74258808735195E+018,24444,0,,0,0,1.14036262035,0,0
1.74258808738576E+018,24445,0,,0,0,1.14036262035,0,0
1.74258808740558E+018,24446,0,,0,0,1.19028449059,0,0
1.74258808742733E+018,24447,0,,0,0,1.19028449059,0,0
1.74258808745674E+018,24448,0,,0,0,1.19028449059,0,0
1.7425880874819E+018,24449,0,,0,0,1.19028449059,0,0
1.74258808750733E+018,24450,0,,0,0,1.19028449059,0,0
1.74258808752783E+018,24451,0,,0,0,1.19028449059,0,0
1.74258808755418E+018,24452,0,,0,0,1.19028449059,0,0
1.74258808758001E+018,24453,0,,0,0,1.19028449059,0,0
1.74258808760261E+018,24454,0,,0,0,1.19028449059,0,0
1.74258808763473E+018,24455,0,,0,0,1.19028449059,0,0
1.74258808765966E+018,24456,0,,0,0,1.19028449059,0,0
1.74258808768362E+018,24457,0,,0,0,1.19028449059,0,0
1.74258808770878E+018,24458,0,,0,0,1.19028449059,0,0
1.74258808773309E+018,24459,0,,0,0,1.19028449059,0,0
1.74258808775195E+018,24460,0,,0,0,1.19028449059,0,0
1.74258808777736E+018,24461,0,,0.0783098861575,0,1.09044075012,0,0
1.74258808780594E+018,24462,0,,0.273526191711,0,1.09044075012,0,0
1.74258808783136E+018,24463,0,,0.340000003576,0,1.01555800438,0,0
1.74258808785766E+018,24464,0,,0.340000003576,0,0.965636193752,0,0
1.74258808787912E+018,24465,0,,0.340000003576,0,0.965636193752,0,0
1.74258808790331E+018,24466,0,,0.340000003576,0,0.965636193752,0,0
1.74258808792851E+018,24467,0,,0.340000003576,0,0.965636193752,0,0
1.74258808795889E+018,24468,0,,0.340000003576,0,0.965636193752,0,0
1.74258808797955E+018,24469,0,,0.340000003576,0,0.965636193752,0,0
1.74258808800752E+018,24470,0,,0.340000003576,0,0.965636193752,0,0
1.74258808802805E+018,24471,0,,0.340000003576,0,0.965636193752,0,0
1.74258808805958E+018,24472,0,,0.340000003576,0,0.965636193752,0,0
1.74258808808576E+018,24473,0,,0.340000003576,0,0.965636193752,0,0
1.74258808810183E+018,24474,0,,0.340000003576,0,0.965636193752,0,0
1.74258808812846E+018,24475,0,,0.340000003576,0,0.965636193752,0,0
1.74258808815663E+018,24476,0,,0.340000003576,0,0.965636193752,0,0
1.74258808818218E+018,24477,0,,0.340000003576,0,0.965636193752,0,0
1.74258808820205E+018,24478,0,,0.340000003576,0,0.965636193752,0,0
1.74258808823463E+018,24479,0,,0.340000003576,0,0.965636193752,0,0
1.7425880882583E+018,24480,0,,0.340000003576,0,0.965636193752,0,0
1.74258808828303E+018,24481,0,,0.340000003576,0,0.965636193752,0,0
1.74258808830862E+018,24482,0,,0.340000003576,0,0.965636193752,0,0
1.74258808832662E+018,24483,0,,0.340000003576,0,0.965636193752,0,0
1.74258808835409E+018,24484,0,,0.340000003576,0,0.965636193752,0,0
1.74258808838486E+018,24485,0,,0.340000003576,0,0.965636193752,0,0
1.74258808840551E+018,24486,0,,0.340000003576,0,0.965636193752,0,0
1.74258808842679E+018,24487,0,,0.340000003576,0,0.965636193752,0,0
1.74258808845197E+018,24488,0,,0.340000003576,0,0.965636193752,0,0
1.74258808848315E+018,24489,0,,0.340000003576,0,0.965636193752,0,0
1.74258808850636E+018,24490,0,,0.340000003576,0,0.965636193752,0,0
1.74258808852772E+018,24491,0,,0.340000003576,0,0.965636193752,0,0
1.74258808855158E+018,24492,0,,0.340000003576,0,0.940675199032,0,0
1.74258808858422E+018,24493,0,,0.340000003576,0,0.940675199032,0,0
1.74258808860735E+018,24494,0,,0.340000003576,0,0.940675199032,0,0
1.74258808863144E+018,24495,0,,0.340000003576,0,0.940675199032,0,0
1.74258808865246E+018,24496,0,,0.340000003576,0,0.940675199032,0,0
1.74258808868285E+018,24497,0,,0.340000003576,0,0.940675199032,0,0
1.74258808870736E+018,24498,0,,0.340000003576,0,0.940675199032,0,0
1.74258808873375E+018,24499,0,,0.340000003576,0,0.940675199032,0,0
1.74258808875785E+018,24500,0,,0.340000003576,0,0.940675199032,0,0
1.74258808878237E+018,24501,0,,0.340000003576,0,0.940675199032,0,0
1.74258808880212E+018,24502,0,,0.340000003576,0,0.940675199032,0,0
1.74258808883169E+018,24503,0,,0.340000003576,0,0.940675199032,0,0
1.74258808885169E+018,24504,0,,0.340000003576,0,0.940675199032,0,0
1.74258808887799E+018,24505,0,,0.340000003576,0,0.940675199032,0,0
1.74258808890272E+018,24506,0,,0.340000003576,0,0.940675199032,0,0
1.742588088927E+018,24507,0,,0.340000003576,0,0.940675199032,0,0
1.74258808895154E+018,24508,0,,0.340000003576,0,0.940675199032,0,0
1.74258808897931E+018,24509,0,,0.340000003576,0,0.940675199032,0,0
1.74258808900281E+018,24510,0,,0.340000003576,0,0.940675199032,0,0
1.74258808903527E+018,24511,0,,0.340000003576,0,0.940675199032,0,0
1.74258808905368E+018,24512,0,,0.340000003576,0,0.940675199032,0,0
1.74258808908255E+018,24513,0,,0.340000003576,0,0.940675199032,0,0
1.74258808910202E+018,24514,0,,0.340000003576,0,0.940675199032,0,0
1.74258808912725E+018,24515,0,,0.340000003576,0,0.940675199032,0,0
1.74258808916039E+018,24516,0,,0.340000003576,0,0.940675199032,0,0
1.74258808917914E+018,24517,0,,0.340000003576,0,0.940675199032,0,0
1.74258808920286E+018,24518,0,,0.340000003576,0,0.940675199032,0,0
1.74258808923231E+018,24519,0,,0.340000003576,0,0.940675199032,0,0
1.74258808925166E+018,24520,0,,0.340000003576,0,0.940675199032,0,0
1.74258808928397E+018,24521,0,,0.340000003576,0,0.940675199032,0,0
1.74258808930583E+018,24522,0,,0.340000003576,0,0.940675199032,0,0
1.74258808932891E+018,24523,0,,0.340000003576,0,0.940675199032,0,0
1.74258808935975E+018,24524,0,,0.340000003576,0,0.940675199032,0,0
1.74258808937678E+018,24525,0,,0.340000003576,0,0.940675199032,0,0
1.74258808940684E+018,24526,0,,0.340000003576,0,0.940675199032,0,0
1.74258808942714E+018,24527,0,,0.340000003576,0,0.940675199032,0,0
1.74258808945426E+018,24528,0,,0.340000003576,0,0.940675199032,0,0
1.74258808948554E+018,24529,0,,0.340000003576,0,0.940675199032,0,0
1.74258808950171E+018,24530,0,,0.279183983803,0,0.940675199032,0,0
1.74258808952679E+018,24531,0,,0.216937169433,0,0.940675199032,0,0
1.74258808955502E+018,24532,0,,0,0,0.940675199032,0,0
1.74258808957888E+018,24533,0,,0,0,0.940675199032,0,0
1.74258808960177E+018,24534,0,,0,0,0.940675199032,0,0
1.74258808963113E+018,24535,0,,0,0,0.940675199032,0,0
1.7425880896578E+018,24536,0,,0,0,0.940675199032,0,0
1.74258808967692E+018,24537,0,,0,0,0.940675199032,0,0
1.74258808970279E+018,24538,0,,0,0,0.940675199032,0,0
1.74258808972693E+018,24539,0,,0,0,0.940675199032,0,0
1.74258808975259E+018,24540,0,,0,0,0.940675199032,0,0
1.74258808978051E+018,24541,0,,0,0,0.940675199032,0,0
1.74258808980514E+018,24542,0,,0,0,0.940675199032,0,0
1.74258808983244E+018,24543,0,,0,0,0.940675199032,0,0
1.74258808985702E+018,24544,0,,0,0,0.940675199032,0,0
1.74258808987699E+018,24545,0,,0,0,0.940675199032,0,0
1.74258808990254E+018,24546,0,,0,0,0.940675199032,0,0
1.74258808993284E+018,24547,0,,0,0,0.940675199032,0,0
1.74258808995644E+018,24548,0,,0,0,0.940675199032,0,0
1.74258808998702E+018,24549,0,,0,0,0.940675199032,0,0
1.74258809000739E+018,24550,0,,0,0,0.890657007694,0,0
1.74258809002969E+018,24551,0,,0,0,0.890657007694,0,0
1.74258809006041E+018,24552,0,,0,0,0.890657007694,0,0
1.74258809007791E+018,24553,0,,0,0,0.890657007694,0,0
1.74258809010894E+018,24554,0,,0,0,0.890657007694,0,0
1.74258809013525E+018,24555,0,,0,0,0.890657007694,0,0
1.742588090153E+018,24556,0,,0,0,0.890657007694,0,0
1.74258809017656E+018,24557,0,,0.0160739701241,0,0.890657007694,0,0
1.74258809020172E+018,24558,0,,0.0698231682181,0,0.890657007694,0,0
1.74258809022678E+018,24559,0,,0.151872336864,0,0.890657007694,0,0
1.74258809025705E+018,24560,0,,0.222605898976,0,0.890657007694,0,0
1.74258809028194E+018,24561,0,,0.29049962759,0,0.890657007694,0,0
1.74258809030275E+018,24562,0,,0.315959781408,0,0.890657007694,0,0
1.7425880903273E+018,24563,0,,0.340000003576,0,0.890657007694,0,0
1.74258809035555E+018,24564,0,,0.340000003576,0,0.890657007694,0,0
1.74258809038578E+018,24565,0,,0.340000003576,0,0.890657007694,0,0
1.74258809040631E+018,24566,0,,0.340000003576,0,0.890657007694,0,0
1.74258809042847E+018,24567,0,,0.340000003576,0,0.890657007694,0,0
1.74258809045157E+018,24568,0,,0.340000003576,0,0.890657007694,0,0
1.74258809048121E+018,24569,0,,0.340000003576,0,0.890657007694,0,0
1.74258809050477E+018,24570,0,,0.340000003576,0,0.890657007694,0,0
1.74258809052754E+018,24571,0,,0.340000003576,0,0.890657007694,0,0
1.7425880905541E+018,24572,0,,0.340000003576,0,0.890657007694,0,0
1.74258809058028E+018,24573,0,,0.340000003576,0,0.890657007694,0,0
1.7425880906023E+018,24574,0,,0.340000003576,0,0.890657007694,0,0
1.74258809062632E+018,24575,0,,0.340000003576,0,0.890657007694,0,0
1.74258809065527E+018,24576,0,,0.340000003576,0,0.890657007694,0,0
1.7425880906808E+018,24577,0,,0.340000003576,0,0.890657007694,0,0
1.742588090709E+018,24578,0,,0.340000003576,0,0.890657007694,0,0
1.74258809072634E+018,24579,0,,0.340000003576,0,0.890657007694,0,0
1.74258809076018E+018,24580,0,,0.340000003576,0,1.01555800438,0,0
1.74258809078399E+018,24581,0,,0.340000003576,0,1.01555800438,0,0
1.74258809080203E+018,24582,0,,0.340000003576,0,1.01555800438,0,0
1.74258809083432E+018,24583,0,,0.340000003576,0,1.01555800438,0,0
1.74258809085863E+018,24584,0,,0.340000003576,0,1.01555800438,0,0
1.74258809088497E+018,24585,0,,0.340000003576,0,1.01555800438,0,0
1.74258809090782E+018,24586,0,,0.324446499348,0,1.01555800438,0,0
1.74258809092666E+018,24587,0,,0.216937169433,0,1.01555800438,0,0
1.7425880909513E+018,24588,0,,0.0669942647219,0,1.01555800438,0,0
1.74258809097728E+018,24589,0,,0,0,0,0,0
1.7425880910049E+018,24590,0,,0,0,1.01555800438,0,0
1.74258809102765E+018,24591,0,,0,0,1.01555800438,0,0
1.74258809105873E+018,24592,0,,0,0,1.01555800438,0,0
1.74258809107919E+018,24593,0,,0,0,1.01555800438,0,0
1.74258809110676E+018,24594,0,,0,0,1.01555800438,0,0
1.74258809112769E+018,24595,0,,0,0,1.01555800438,0,0
1.74258809115379E+018,24596,0,,0,0,1.01555800438,0,0
1.74258809117742E+018,24597,0,,0,0,1.01555800438,0,0
1.7425880912089E+018,24598,0,,0,0,1.01555800438,0,0
1.74258809123454E+018,24599,0,,0,0,1.01555800438,0,0
1.74258809125312E+018,24600,0,,0,0,1.01555800438,0,0
1.74258809128584E+018,24601,0,,0,0,1.01555800438,0,0
1.74258809130752E+018,24602,0,,0,0,1.01555800438,0,0
1.74258809132942E+018,24603,0,,0,0,1.01555800438,0,0
1.74258809135199E+018,24604,0,,0,0,1.01555800438,0,0
1.74258809137746E+018,24605,0,,0,0,1.01555800438,0,0
1.74258809141115E+018,24606,0,,0,0,1.01555800438,0,0
1.74258809142632E+018,24607,0,,0,0,1.01555800438,0,0
1.74258809145193E+018,24608,0,,0,0,1.01555800438,0,0
1.74258809147679E+018,24609,0,,0,0,1.01555800438,0,0
1.74258809150823E+018,24610,0,,0,0,1.01555800438,0,0
1.74258809153343E+018,24611,0,,0,0,1.01555800438,0,0
1.74258809155144E+018,24612,0,,0,0,1.01555800438,0,0
1.74258809157805E+018,24613,0,,0.0358763076365,0,1.01555800438,0,0
1.74258809160638E+018,24614,0,,0.100941129029,0,1.01555800438,0,0
1.74258809163468E+018,24615,0,,0.199963733554,0,1.01555800438,0,0
1.74258809165177E+018,24616,0,,0.29898634553,0,1.01555800438,0,0
1.7425880916815E+018,24617,0,,0.340000003576,0,1.01555800438,0,0
1.74258809170728E+018,24618,0,,0.340000003576,0,1.01555800438,0,0
1.74258809172688E+018,24619,0,,0.340000003576,0,1.01555800438,0,0
1.74258809175379E+018,24620,0,,0.340000003576,0,1.01555800438,0,0
1.74258809177997E+018,24621,0,,0.340000003576,0,1.01555800438,0,0
1.74258809180661E+018,24622,0,,0.340000003576,0,1.01555800438,0,0
1.74258809182944E+018,24623,0,,0.340000003576,0,1.01555800438,0,0
1.7425880918551E+018,24624,0,,0.340000003576,0,1.01555800438,0,0
1.74258809188015E+018,24625,0,,0.340000003576,0,1.01555800438,0,0
1.74258809190161E+018,24626,0,,0.340000003576,0,1.01555800438,0,0
1.74258809192734E+018,24627,0,,0.340000003576,0,1.01555800438,0,0
1.74258809195308E+018,24628,0,,0.340000003576,0,1.01555800438,0,0
1.74258809197878E+018,24629,0,,0.340000003576,0,1.01555800438,0,0
1.74258809200191E+018,24630,0,,0.340000003576,0,1.01555800438,0,0
1.74258809202911E+018,24631,0,,0.340000003576,0,1.01555800438,0,0
1.74258809205165E+018,24632,0,,0.340000003576,0,1.06547987461,0,0
1.74258809207711E+018,24633,0,,0.340000003576,0,1.06547987461,0,0
1.74258809210244E+018,24634,0,,0.340000003576,0,1.06547987461,0,0
1.74258809212926E+018,24635,0,,0.340000003576,0,1.06547987461,0,0
1.74258809215222E+018,24636,0,,0.340000003576,0,1.06547987461,0,0
1.74258809218007E+018,24637,0,,0.340000003576,0,1.06547987461,0,0
1.74258809220533E+018,24638,0,,0.340000003576,0,1.06547987461,0,0
1.74258809222976E+018,24639,0,,0.340000003576,0,1.06547987461,0,0
1.74258809225325E+018,24640,0,,0.340000003576,0,1.06547987461,0,0
1.74258809228457E+018,24641,0,,0.340000003576,0,1.14036262035,0,0
1.74258809230465E+018,24642,0,,0.340000003576,0,1.19028449059,0,0
1.74258809232898E+018,24643,0,,0.340000003576,0,1.19028449059,0,0
1.74258809235149E+018,24644,0,,0.340000003576,0,1.19028449059,0,0
1.74258809237668E+018,24645,0,,0.340000003576,0,1.19028449059,0,0
1.74258809240515E+018,24646,0,,0.340000003576,0,1.19028449059,0,0
1.74258809242774E+018,24647,0,,0.340000003576,0,1.19028449059,0,0
1.74258809245405E+018,24648,0,,0.340000003576,0,1.19028449059,0,0
1.74258809247986E+018,24649,0,,0.340000003576,0,1.19028449059,0,0
1.74258809250647E+018,24650,0,,0.340000003576,0,1.19028449059,0,0
1.74258809252734E+018,24651,0,,0.340000003576,0,1.19028449059,0,0
1.74258809255445E+018,24652,0,,0.340000003576,0,1.19028449059,0,0
1.74258809258107E+018,24653,0,,0.340000003576,0,1.19028449059,0,0
1.74258809260954E+018,24654,0,,0.340000003576,0,1.19028449059,0,0
1.7425880926311E+018,24655,0,,0.340000003576,0,1.19028449059,0,0
1.74258809265843E+018,24656,0,,0.340000003576,0,1.19028449059,0,0
1.74258809268199E+018,24657,0,,0.340000003576,0,1.19028449059,0,0
1.74258809270391E+018,24658,0,,0.340000003576,0,1.19028449059,0,0
1.74258809272976E+018,24659,0,,0.340000003576,0,1.19028449059,0,0
1.74258809275505E+018,24660,0,,0.340000003576,0,1.19028449059,0,0
1.74258809277811E+018,24661,0,,0.340000003576,0,1.19028449059,0,0
1.74258809280687E+018,24662,0,,0.340000003576,0,1.19028449059,0,0
1.74258809283127E+018,24663,0,,0.340000003576,0,1.19028449059,0,0
1.74258809285294E+018,24664,0,,0.340000003576,0,1.19028449059,0,0
1.74258809288091E+018,24665,0,,0.340000003576,0,1.19028449059,0,0
1.74258809290761E+018,24666,0,,0.340000003576,0,1.19028449059,0,0
1.7425880929291E+018,24667,0,,0.340000003576,0,1.19028449059,0,0
1.74258809295214E+018,24668,0,,0.340000003576,0,1.19028449059,0,0
1.74258809298071E+018,24669,0,,0.315959781408,0,1.19028449059,0,0
1.74258809300943E+018,24670,0,,0.245237141848,0,1.19028449059,0,0
1.74258809302883E+018,24671,0,,0.146214529872,0,1.19028449059,0,0
1.74258809305422E+018,24672,0,,0,0,1.09044075012,0,0
1.74258809308398E+018,24673,0,,0,0,1.09044075012,0,0
1.74258809310206E+018,24674,0,,0,0,1.09044075012,0,0
1.74258809313163E+018,24675,0,,0,0,1.06547987461,0,0
1.74258809315764E+018,24676,0,,0,0,1.06547987461,0,0
1.74258809318049E+018,24677,0,,0,0,1.06547987461,0,0
1.7425880932054E+018,24678,0,,0,0,1.06547987461,0,0
1.74258809323003E+018,24679,0,,0,0,1.06547987461,0,0
1.74258809325161E+018,24680,0,,0,0,1.06547987461,0,0
1.74258809328156E+018,24681,0,,0,0,1.06547987461,0,0
1.74258809330731E+018,24682,0,,0,0,1.06547987461,0,0
1.7425880933294E+018,24683,0,,0,0,1.06547987461,0,0
1.74258809335183E+018,24684,0,,0,0,1.06547987461,0,0
1.74258809338077E+018,24685,0,,0,0,1.06547987461,0,0
1.74258809340613E+018,24686,0,,0,0,1.06547987461,0,0
1.742588093432E+018,24687,0,,0,0,1.06547987461,0,0
1.74258809345151E+018,24688,0,,0,0,1.06547987461,0,0
1.74258809347931E+018,24689,0,,0,0,1.06547987461,0,0
1.74258809350293E+018,24690,0,,0,0,1.06547987461,0,0
1.74258809352643E+018,24691,0,,0,0,1.06547987461,0,0
1.74258809355882E+018,24692,0,,0,0,1.06547987461,0,0
1.74258809358563E+018,24693,0,,0,0,1.06547987461,0,0
1.74258809360628E+018,24694,0,,0,0,1.06547987461,0,0
1.74258809363189E+018,24695,0,,0,0,1.06547987461,0,0
1.7425880936533E+018,24696,0,,0,0,1.06547987461,0,0
1.74258809367694E+018,24697,0,,0,0,1.06547987461,0,0
1.74258809370644E+018,24698,0,,0,0,1.06547987461,0,0
1.74258809372907E+018,24699,0,,0,0,1.06547987461,0,0
1.74258809375148E+018,24700,0,,0,0,1.06547987461,0,0
1.74258809378082E+018,24701,0,,0,0,1.06547987461,0,0
1.74258809380495E+018,24702,0,,0,0,1.06547987461,0,0
1.74258809383145E+018,24703,0,,0,0,1.06547987461,0,0
1.74258809385835E+018,24704,0,,0,0,1.06547987461,0,0
1.74258809388285E+018,24705,0,,0,0,1.06547987461,0,0
1.7425880939031E+018,24706,0,,0,0,1.06547987461,0,0
1.74258809392687E+018,24707,0,,0,0,1.06547987461,0,0
1.74258809395379E+018,24708,0,,0,0,1.06547987461,0,0
1.74258809397956E+018,24709,0,,0,0,1.06547987461,0,0
1.74258809400894E+018,24710,0,,0,0,1.06547987461,0,0
1.74258809403012E+018,24711,0,,0,0,1.06547987461,0,0
1.74258809405496E+018,24712,0,,0,0,1.06547987461,0,0
1.74258809407762E+018,24713,0,,0,0,1.06547987461,0,0
1.74258809410607E+018,24714,0,,0,0,1.06547987461,0,0
1.74258809413225E+018,24715,0,,0,0,1.06547987461,0,0
1.7425880941562E+018,24716,0,,0,0,1.06547987461,0,0
1.74258809418117E+018,24717,0,,0,0,1.06547987461,0,0
1.74258809420742E+018,24718,0,,0,0,1.06547987461,0,0
1.74258809422638E+018,24719,0,,0,0,1.06547987461,0,0
1.74258809425238E+018,24720,0,,0,0,1.06547987461,0,0
1.74258809427971E+018,24721,0,,0,0,1.06547987461,0,0
1.74258809430361E+018,24722,0,,0,0,1.06547987461,0,0
1.74258809432744E+018,24723,0,,0,0,1.06547987461,0,0
1.74258809435578E+018,24724,0,,0,0,1.06547987461,0,0
1.74258809438564E+018,24725,0,,0,0,1.06547987461,0,0
1.74258809440626E+018,24726,0,,0,0,1.06547987461,0,0
1.74258809443084E+018,24727,0,,0,0,1.06547987461,0,0
1.74258809445164E+018,24728,0,,0,0,1.06547987461,0,0
1.74258809448232E+018,24729,0,,0,0,1.06547987461,0,0
1.74258809450659E+018,24730,0,,0,0,1.06547987461,0,0
1.74258809452848E+018,24731,0,,0,0,1.06547987461,0,0
1.74258809455324E+018,24732,0,,0,0,1.01555800438,0,0
1.74258809458066E+018,24733,0,,0,0,0.965636193752,0,0
1.74258809460759E+018,24734,0,,0,0,0.965636193752,0,0
1.74258809463089E+018,24735,0,,0,0,0.965636193752,0,0
1.7425880946553E+018,24736,0,,0,0,0.965636193752,0,0
1.74258809468248E+018,24737,0,,0,0,0.965636193752,0,0
1.74258809470219E+018,24738,0,,0,0,0.965636193752,0,0
1.74258809473287E+018,24739,0,,0,0,0.965636193752,0,0
1.74258809475413E+018,24740,0,,0,0,0.965636193752,0,0
1.74258809478499E+018,24741,0,,0,0,0.965636193752,0,0
1.74258809480529E+018,24742,0,,0,0,0.965636193752,0,0
1.7425880948327E+018,24743,0,,0,0,0.965636193752,0,0
1.74258809485225E+018,24744,0,,0,0,0.965636193752,0,0
1.74258809487676E+018,24745,0,,0,0,0.965636193752,0,0
1.74258809490331E+018,24746,0,,0,0,0.965636193752,0,0
1.74258809492908E+018,24747,0,,0,0,0.965636193752,0,0
1.74258809496371E+018,24748,0,,0,0,0.965636193752,0,0
1.74258809497712E+018,24749,0,,0,0,1.06547987461,0,0
1.74258809500771E+018,24750,0,,0,0,1.06547987461,0,0
1.74258809502899E+018,24751,0,,0,0,1.06547987461,0,0
1.74258809505628E+018,24752,0,,0,0,1.06547987461,0,0
1.74258809508309E+018,24753,0,,0,0,1.06547987461,0,0
1.74258809510576E+018,24754,0,,0,0,1.06547987461,0,0
1.74258809512716E+018,24755,0,,0,0,1.09044075012,0,0
1.74258809515958E+018,24756,0,,0,0,1.09044075012,0,0
1.74258809518154E+018,24757,0,,0,0,1.09044075012,0,0
1.74258809520553E+018,24758,0,,0,0,1.09044075012,0,0
1.74258809522709E+018,24759,0,,0,0,1.09044075012,0,0
1.74258809525237E+018,24760,0,,0,0,1.09044075012,0,0
1.74258809527757E+018,24761,0,,0,0,1.09044075012,0,0
1.74258809530166E+018,24762,0,,0,0,1.09044075012,0,0
1.7425880953266E+018,24763,0,,0,0,1.14036262035,0,0
1.7425880953541E+018,24764,0,,0,0,1.19028449059,0,0
1.74258809538236E+018,24765,0,,0,0,1.19028449059,0,0
1.74258809540678E+018,24766,0,,0.08396769315,0,1.19028449059,0,0
1.74258809542673E+018,24767,0,,0.123583294451,0,1.19028449059,0,0
1.7425880954554E+018,24768,0,,0.182990297675,0,1.19028449059,0,0
1.74258809548367E+018,24769,0,,0.214108258486,0,1.19028449059,0,0
1.74258809550354E+018,24770,0,,0.239579334855,0,1.19028449059,0,0
1.74258809552634E+018,24771,0,,0.276355087757,0,1.19028449059,0,0
1.74258809555445E+018,24772,0,,0.301815241575,0,1.19028449059,0,0
1.74258809557887E+018,24773,0,,0.307473063469,0,1.19028449059,0,0
1.74258809560738E+018,24774,0,,0.307473063469,0,1.19028449059,0,0
1.74258809562988E+018,24775,0,,0.307473063469,0,1.19028449059,0,0
1.74258809565536E+018,24776,0,,0.307473063469,0,1.19028449059,0,0
1.74258809568389E+018,24777,0,,0.307473063469,0,1.19028449059,0,0
1.74258809570743E+018,24778,0,,0.307473063469,0,1.19028449059,0,0
1.74258809572871E+018,24779,0,,0.307473063469,0,1.19028449059,0,0
1.74258809575182E+018,24780,0,,0.310301959515,0,1.19028449059,0,0
1.74258809578199E+018,24781,0,,0.310301959515,0,1.19028449059,0,0
1.74258809581379E+018,24782,0,,0.315959781408,0,1.19028449059,0,0
1.74258809582711E+018,24783,0,,0.315959781408,0,1.19028449059,0,0
1.74258809585241E+018,24784,0,,0.3216175735,0,1.19028449059,0,0
1.74258809587847E+018,24785,0,,0.301815241575,0,1.19028449059,0,0
1.74258809590396E+018,24786,0,,0.236750423908,0,1.19028449059,0,0
1.74258809592665E+018,24787,0,,0.0387052111328,0,1.19028449059,0,0
1.74258809595464E+018,24788,0,,0,0,1.19028449059,0,0
1.74258809597832E+018,24789,0,,0,0,1.19028449059,0,0
1.74258809600833E+018,24790,0,,0,0,1.19028449059,0,0
1.74258809603417E+018,24791,0,,0,0,1.19028449059,0,0
1.74258809605198E+018,24792,0,,0,0,1.19028449059,0,0
1.74258809608167E+018,24793,0,,0,0,1.19028449059,0,0
1.74258809610813E+018,24794,0,,0,0,1.19028449059,0,0
1.74258809612771E+018,24795,0,,0,0,1.19028449059,0,0
1.74258809615441E+018,24796,0,,0,0,1.19028449059,0,0
1.74258809618267E+018,24797,0,,0,0,1.19028449059,0,0
1.74258809620782E+018,24798,0,,0,0,1.19028449059,0,0
1.74258809623207E+018,24799,0,,0,0,1.19028449059,0,0
1.74258809625711E+018,24800,0,,0,0,1.19028449059,0,0
1.7425880962831E+018,24801,0,,0,0,1.19028449059,0,0
1.74258809630909E+018,24802,0,,0,0,1.19028449059,0,0
1.74258809632866E+018,24803,0,,0,0,1.19028449059,0,0
1.74258809635681E+018,24804,0,,0,0,1.19028449059,0,0
1.7425880963804E+018,24805,0,,0,0,1.19028449059,0,0
1.74258809640836E+018,24806,0,,0,0,1.19028449059,0,0
1.7425880964364E+018,24807,0,,0,0,1.19028449059,0,0
1.74258809645235E+018,24808,0,,0,0,1.19028449059,0,0
1.74258809647757E+018,24809,0,,0,0,1.19028449059,0,0
1.7425880965025E+018,24810,0,,0,0,1.19028449059,0,0
1.74258809652702E+018,24811,0,,0,0,1.19028449059,0,0
1.74258809655219E+018,24812,0,,0,0,1.19028449059,0,0
1.74258809658431E+018,24813,0,,0,0,1.19028449059,0,0
1.74258809660603E+018,24814,0,,0,0,1.19028449059,0,0
1.74258809662666E+018,24815,0,,0,0,1.19028449059,0,0
1.74258809665188E+018,24816,0,,0,0,1.19028449059,0,0
1.74258809667822E+018,24817,0,,0,0,1.19028449059,0,0
1.7425880967017E+018,24818,0,,0,0,1.19028449059,0,0
1.74258809672976E+018,24819,0,,0,0,1.19028449059,0,0
1.74258809675225E+018,24820,0,,0,0,1.19028449059,0,0
1.7425880967795E+018,24821,0,,0,0,1.19028449059,0,0
1.74258809680736E+018,24822,0,,0.0783098861575,0,1.19028449059,0,0
1.74258809682663E+018,24823,0,,0.174503579736,0,1.19028449059,0,0
1.74258809685203E+018,24824,0,,0.253723859787,0,1.19028449059,0,0
1.74258809687689E+018,24825,0,,0.340000003576,0,1.19028449059,0,0
1.74258809690727E+018,24826,0,,0.340000003576,0,1.19028449059,0,0
1.74258809692707E+018,24827,0,,0.340000003576,0,1.19028449059,0,0
1.74258809695219E+018,24828,0,,0.340000003576,0,1.19028449059,0,0
1.74258809697886E+018,24829,0,,0.340000003576,0,1.19028449059,0,0
1.74258809700578E+018,24830,0,,0.340000003576,0,1.19028449059,0,0
1.74258809702952E+018,24831,0,,0.340000003576,0,1.19028449059,0,0
1.7425880970575E+018,24832,0,,0.340000003576,0,1.19028449059,0,0
1.74258809708445E+018,24833,0,,0.340000003576,0,1.09044075012,0,0
1.7425880971056E+018,24834,0,,0.340000003576,0,1.09044075012,0,0
1.74258809713084E+018,24835,0,,0.340000003576,0,1.06547987461,0,0
1.74258809715175E+018,24836,0,,0.340000003576,0,1.01555800438,0,0
1.74258809717762E+018,24837,0,,0.340000003576,0,1.01555800438,0,0
1.74258809720725E+018,24838,0,,0.340000003576,0,1.01555800438,0,0
1.74258809723479E+018,24839,0,,0.340000003576,0,1.01555800438,0,0
1.74258809725399E+018,24840,0,,0.340000003576,0,1.01555800438,0,0
1.7425880972813E+018,24841,0,,0.340000003576,0,1.01555800438,0,0
1.7425880973052E+018,24842,0,,0.340000003576,0,1.01555800438,0,0
1.74258809733106E+018,24843,0,,0.340000003576,0,1.01555800438,0,0
1.74258809735629E+018,24844,0,,0.340000003576,0,1.01555800438,0,0
1.74258809738071E+018,24845,0,,0.340000003576,0,1.01555800438,0,0
1.74258809740725E+018,24846,0,,0.340000003576,0,1.01555800438,0,0
1.74258809742883E+018,24847,0,,0.340000003576,0,1.01555800438,0,0
1.74258809745162E+018,24848,0,,0.340000003576,0,1.01555800438,0,0
1.74258809747932E+018,24849,0,,0.340000003576,0,1.01555800438,0,0
1.74258809750249E+018,24850,0,,0.340000003576,0,1.01555800438,0,0
1.74258809752662E+018,24851,0,,0.340000003576,0,1.01555800438,0,0
1.74258809756047E+018,24852,0,,0.340000003576,0,1.01555800438,0,0
1.74258809757757E+018,24853,0,,0.340000003576,0,1.01555800438,0,0
1.74258809760225E+018,24854,0,,0.340000003576,0,1.01555800438,0,0
1.74258809763176E+018,24855,0,,0.340000003576,0,1.01555800438,0,0
1.74258809765727E+018,24856,0,,0.340000003576,0,1.01555800438,0,0
1.74258809767664E+018,24857,0,,0.307473063469,0,1.01555800438,0,0
1.74258809770333E+018,24858,0,,0.191477015615,0,1.01555800438,0,0
1.74258809772648E+018,24859,0,,0,0,1.01555800438,0,0
1.74258809775147E+018,24860,0,,0,0,1.01555800438,0,0
1.74258809777661E+018,24861,0,,0,0,1.01555800438,0,0
1.74258809780179E+018,24862,0,,0,0,1.01555800438,0,0
1.74258809783066E+018,24863,0,,0,0,1.01555800438,0,0
1.74258809785693E+018,24864,0,,0,0,1.01555800438,0,0
1.74258809788152E+018,24865,0,,0,0,1.01555800438,0,0
1.74258809790383E+018,24866,0,,0,0,1.01555800438,0,0
1.74258809792683E+018,24867,0,,0,0,1.01555800438,0,0
1.74258809795297E+018,24868,0,,0,0,1.01555800438,0,0
1.74258809798212E+018,24869,0,,0,0,1.01555800438,0,0
1.74258809800624E+018,24870,0,,0,0,1.01555800438,0,0
1.74258809802935E+018,24871,0,,0,0,1.01555800438,0,0
1.74258809805282E+018,24872,0,,0,0,1.01555800438,0,0
1.74258809808466E+018,24873,0,,0,0,1.01555800438,0,0
1.74258809810296E+018,24874,0,,0,0,1.01555800438,0,0
1.74258809812859E+018,24875,0,,0,0,1.01555800438,0,0
1.74258809815205E+018,24876,0,,0,0,1.01555800438,0,0
1.74258809817974E+018,24877,0,,0,0,1.01555800438,0,0
1.74258809820723E+018,24878,0,,0,0,1.01555800438,0,0
1.74258809822839E+018,24879,0,,0,0,1.01555800438,0,0
1.74258809825953E+018,24880,0,,0,0,1.01555800438,0,0
1.74258809828186E+018,24881,0,,0.0217317808419,0,1.01555800438,0,0
1.74258809830311E+018,24882,0,,0.0556786470115,0,1.01555800438,0,0
1.74258809832959E+018,24883,0,,0.214108258486,0,1.01555800438,0,0
1.74258809835289E+018,24884,0,,0.3216175735,0,1.01555800438,0,0
1.74258809838248E+018,24885,0,,0.330104291439,0,1.01555800438,0,0
1.74258809840455E+018,24886,0,,0.332933187485,0,1.01555800438,0,0
1.74258809842711E+018,24887,0,,0.338591009378,0,1.01555800438,0,0
1.74258809845501E+018,24888,0,,0.338591009378,0,1.01555800438,0,0
1.74258809847984E+018,24889,0,,0.338591009378,0,1.01555800438,0,0
1.74258809850504E+018,24890,0,,0.338591009378,0,1.01555800438,0,0
1.74258809852723E+018,24891,0,,0.338591009378,0,1.01555800438,0,0
1.74258809855203E+018,24892,0,,0.338591009378,0,1.01555800438,0,0
1.74258809858023E+018,24893,0,,0.338591009378,0,1.01555800438,0,0
1.74258809860671E+018,24894,0,,0.338591009378,0,1.01555800438,0,0
1.74258809863109E+018,24895,0,,0.338591009378,0,1.01555800438,0,0
1.74258809865518E+018,24896,0,,0.338591009378,0,1.01555800438,0,0
1.74258809868288E+018,24897,0,,0.338591009378,0,1.01555800438,0,0
1.74258809870859E+018,24898,0,,0.338591009378,0,1.01555800438,0,0
1.74258809872876E+018,24899,0,,0.338591009378,0,1.01555800438,0,0
1.74258809875176E+018,24900,0,,0.338591009378,0,1.01555800438,0,0
1.74258809878165E+018,24901,0,,0.338591009378,0,1.01555800438,0,0
1.74258809880737E+018,24902,0,,0.338591009378,0,1.01555800438,0,0
1.74258809882633E+018,24903,0,,0.338591009378,0,1.01555800438,0,0
1.74258809885249E+018,24904,0,,0.338591009378,0,1.01555800438,0,0
1.74258809887745E+018,24905,0,,0.338591009378,0,1.01555800438,0,0
1.74258809890889E+018,24906,0,,0.338591009378,0,1.01555800438,0,0
1.74258809892724E+018,24907,0,,0.338591009378,0,1.01555800438,0,0
1.74258809895502E+018,24908,0,,0.338591009378,0,1.01555800438,0,0
1.74258809898045E+018,24909,0,,0.338591009378,0,1.01555800438,0,0
1.74258809900526E+018,24910,0,,0.338591009378,0,1.01555800438,0,0
1.74258809902993E+018,24911,0,,0.338591009378,0,1.01555800438,0,0
1.74258809905909E+018,24912,0,,0.338591009378,0,1.01555800438,0,0
1.74258809908488E+018,24913,0,,0.338591009378,0,1.01555800438,0,0
1.74258809910883E+018,24914,0,,0.338591009378,0,1.01555800438,0,0
1.7425880991285E+018,24915,0,,0.338591009378,0,1.01555800438,0,0
1.7425880991538E+018,24916,0,,0.338591009378,0,1.01555800438,0,0
1.74258809917673E+018,24917,0,,0.338591009378,0,1.01555800438,0,0
1.74258809920947E+018,24918,0,,0.338591009378,0,1.01555800438,0,0
1.74258809923128E+018,24919,0,,0.338591009378,0,1.01555800438,0,0
1.74258809925262E+018,24920,0,,0.338591009378,0,1.01555800438,0,0
1.74258809927738E+018,24921,0,,0.338591009378,0,1.01555800438,0,0
1.7425880993109E+018,24922,0,,0.338591009378,0,1.01555800438,0,0
1.74258809932683E+018,24923,0,,0.338591009378,0,1.01555800438,0,0
1.74258809935603E+018,24924,0,,0.338591009378,0,1.01555800438,0,0
1.74258809938298E+018,24925,0,,0.338591009378,0,1.01555800438,0,0
1.74258809940614E+018,24926,0,,0.338591009378,0,1.01555800438,0,0
1.74258809942645E+018,24927,0,,0.338591009378,0,1.01555800438,0,0
1.74258809945166E+018,24928,0,,0.338591009378,0,1.01555800438,0,0
1.74258809948381E+018,24929,0,,0.338591009378,0,1.01555800438,0,0
1.74258809950888E+018,24930,0,,0.338591009378,0,1.01555800438,0,0
1.74258809952994E+018,24931,0,,0.248066052794,0,1.01555800438,0,0
1.74258809955859E+018,24932,0,,0.109438769519,0,1.01555800438,0,0
1.74258809957686E+018,24933,0,,0,0,1.01555800438,0,0
1.74258809960211E+018,24934,0,,0,0,1.01555800438,0,0
1.74258809963031E+018,24935,0,,0,0,1.01555800438,0,0
1.7425880996563E+018,24936,0,,0,0,1.01555800438,0,0
1.74258809968045E+018,24937,0,,0,0,1.01555800438,0,0
1.74258809970806E+018,24938,0,,0,0,1.01555800438,0,0
1.74258809972867E+018,24939,0,,0,0,1.01555800438,0,0
1.74258809975361E+018,24940,0,,0,0,1.01555800438,0,0
1.74258809978249E+018,24941,0,,0,0,1.01555800438,0,0
1.74258809980922E+018,24942,0,,0,0,1.01555800438,0,0
1.74258809983331E+018,24943,0,,0,0,1.01555800438,0,0
1.74258809985948E+018,24944,0,,0,0,1.01555800438,0,0
1.74258809988547E+018,24945,0,,0,0,1.01555800438,0,0
1.74258809990227E+018,24946,0,,0,0,1.01555800438,0,0
1.74258809992763E+018,24947,0,,0,0,1.01555800438,0,0
1.7425880999533E+018,24948,0,,0,0,1.01555800438,0,0
1.74258809998093E+018,24949,0,,0,0,1.01555800438,0,0
1.74258810000199E+018,24950,0,,0,0,1.01555800438,0,0
1.74258810002862E+018,24951,0,,0,0,1.01555800438,0,0
1.74258810005926E+018,24952,0,,0,0,1.01555800438,0,0
1.74258810008426E+018,24953,0,,0,0,1.01555800438,0,0
1.7425881001016E+018,24954,0,,0,0,1.01555800438,0,0
1.74258810012814E+018,24955,0,,0,0,1.01555800438,0,0
1.74258810015291E+018,24956,0,,0,0,1.01555800438,0,0
1.74258810018001E+018,24957,0,,0,0,1.01555800438,0,0
1.74258810020515E+018,24958,0,,0,0,1.01555800438,0,0
1.74258810023473E+018,24959,0,,0.0471919290721,0,1.01555800438,0,0
1.74258810025664E+018,24960,0,,0.160359054804,0,1.01555800438,0,0
1.74258810027993E+018,24961,0,,0.205621540546,0,1.01555800438,0,0
1.74258810030291E+018,24962,0,,0.276355087757,0,1.01555800438,0,0
1.74258810032696E+018,24963,0,,0.29049962759,0,1.01555800438,0,0
1.74258810035234E+018,24964,0,,0.29049962759,0,1.01555800438,0,0
1.7425881003814E+018,24965,0,,0.293328523636,0,1.01555800438,0,0
1.74258810040789E+018,24966,0,,0.29898634553,0,1.01555800438,0,0
1.74258810042755E+018,24967,0,,0.29898634553,0,1.01555800438,0,0
1.74258810045152E+018,24968,0,,0.29898634553,0,1.01555800438,0,0
1.74258810047727E+018,24969,0,,0.29898634553,0,1.01555800438,0,0
1.74258810050525E+018,24970,0,,0.29898634553,0,1.01555800438,0,0
1.74258810052663E+018,24971,0,,0.301815241575,0,1.01555800438,0,0
1.74258810055997E+018,24972,0,,0.301815241575,0,1.01555800438,0,0
1.74258810057923E+018,24973,0,,0.301815241575,0,1.01555800438,0,0
1.74258810060212E+018,24974,0,,0.301815241575,0,1.01555800438,0,0
1.74258810062883E+018,24975,0,,0.301815241575,0,1.01555800438,0,0
1.74258810065882E+018,24976,0,,0.301815241575,0,1.01555800438,0,0
1.74258810068041E+018,24977,0,,0.301815241575,0,1.01555800438,0,0
1.74258810070217E+018,24978,0,,0.301815241575,0,1.01555800438,0,0
1.74258810073138E+018,24979,0,,0.301815241575,0,1.01555800438,0,0
1.74258810075698E+018,24980,0,,0.301815241575,0,1.01555800438,0,0
1.74258810078099E+018,24981,0,,0.301815241575,0,1.01555800438,0,0
1.74258810080882E+018,24982,0,,0.301815241575,0,1.01555800438,0,0
1.74258810082968E+018,24983,0,,0.301815241575,0,1.01555800438,0,0
1.74258810085838E+018,24984,0,,0.301815241575,0,1.01555800438,0,0
1.74258810088164E+018,24985,0,,0.262210577726,0,1.01555800438,0,0
1.74258810090355E+018,24986,0,,0.205621540546,0,1.01555800438,0,0
1.74258810092725E+018,24987,0,,0.0556786470115,0,1.01555800438,0,0
1.74258810095367E+018,24988,0,,0,0,1.01555800438,0,0
1.74258810098107E+018,24989,0,,0,0,1.01555800438,0,0
1.74258810100807E+018,24990,0,,0,0,1.01555800438,0,0
1.74258810103124E+018,24991,0,,0,0,1.01555800438,0,0
1.74258810105236E+018,24992,0,,0,0,1.01555800438,0,0
1.74258810108691E+018,24993,0,,0,0,1.01555800438,0,0
1.74258810111037E+018,24994,0,,0,0,1.01555800438,0,0
1.74258810112915E+018,24995,0,,0,0,0.965636193752,0,0
1.74258810115477E+018,24996,0,,0,0,0.965636193752,0,0
1.74258810118097E+018,24997,0,,0,0,0.965636193752,0,0
1.7425881012091E+018,24998,0,,0,0,0.965636193752,0,0
1.74258810123276E+018,24999,0,,0,0,0.965636193752,0,0
1.74258810125685E+018,25000,0,,0,0,0.965636193752,0,0
1.74258810127772E+018,25001,0,,0,0,0.965636193752,0,0
1.74258810130697E+018,25002,0,,0,0,0.965636193752,0,0
1.74258810133313E+018,25003,0,,0,0,0.965636193752,0,0
1.74258810135576E+018,25004,0,,0,0,0.965636193752,0,0
1.74258810138107E+018,25005,0,,0,0,0.965636193752,0,0
1.74258810140794E+018,25006,0,,0.0754809752107,0,0.965636193752,0,0
1.74258810142904E+018,25007,0,,0.191477015615,0,1.06547987461,0,0
1.74258810145198E+018,25008,0,,0.29049962759,0,1.06547987461,0,0
1.7425881014769E+018,25009,0,,0.29049962759,0,1.19028449059,0,0
1.74258810150726E+018,25010,0,,0.29049962759,0,1.26516735554,0,0
1.74258810152766E+018,25011,0,,0.29049962759,0,1.31508910656,0,0
1.74258810155652E+018,25012,0,,0.29049962759,0,1.31508910656,0,0
1.74258810157936E+018,25013,0,,0.29049962759,0,1.31508910656,0,0
1.74258810160723E+018,25014,0,,0.293328523636,0,1.31508910656,0,0
1.74258810163087E+018,25015,0,,0.29898634553,0,1.31508910656,0,0
1.74258810165233E+018,25016,0,,0.29898634553,0,1.31508910656,0,0
1.74258810167765E+018,25017,0,,0.29898634553,0,1.31508910656,0,0
1.74258810170346E+018,25018,0,,0.29898634553,0,1.31508910656,0,0
1.74258810172649E+018,25019,0,,0.29898634553,0,1.31508910656,0,0
1.74258810175134E+018,25020,0,,0.29898634553,0,1.31508910656,0,0
1.74258810177678E+018,25021,0,,0.29898634553,0,1.21524548531,0,0
1.74258810180559E+018,25022,0,,0.29898634553,0,1.21524548531,0,0
1.7425881018334E+018,25023,0,,0.29898634553,0,1.21524548531,0,0
1.74258810185442E+018,25024,0,,0.29898634553,0,1.21524548531,0,0
1.74258810187704E+018,25025,0,,0.29898634553,0,1.21524548531,0,0
1.74258810190964E+018,25026,0,,0.29898634553,0,1.21524548531,0,0
1.74258810193333E+018,25027,0,,0.29898634553,0,1.21524548531,0,0
1.74258810195794E+018,25028,0,,0.29898634553,0,1.19028449059,0,0
1.74258810197828E+018,25029,0,,0.205621540546,0,1.19028449059,0,0
1.74258810200513E+018,25030,0,,0,0,1.19028449059,0,0
1.74258810202855E+018,25031,0,,0,0,1.09044075012,0,0
1.74258810205706E+018,25032,0,,0,0,1.09044075012,0,0
1.74258810207707E+018,25033,0,,0,0,1.09044075012,0,0
1.74258810210149E+018,25034,0,,0,0,1.06547987461,0,0
1.74258810212749E+018,25035,0,,0,0,1.06547987461,0,0
1.74258810215504E+018,25036,0,,0,0,1.01555800438,0,0
1.74258810218283E+018,25037,0,,0,0,1.01555800438,0,0
1.7425881022029E+018,25038,0,,0,0,0.965636193752,0,0
1.74258810222733E+018,25039,0,,0,0,0.965636193752,0,0
1.74258810225161E+018,25040,0,,0,0,0.965636193752,0,0
1.74258810228075E+018,25041,0,,0,0,0.965636193752,0,0
1.74258810230866E+018,25042,0,,0,0,0.965636193752,0,0
1.74258810233225E+018,25043,0,,0,0,0.965636193752,0,0
1.74258810235635E+018,25044,0,,0,0,0.965636193752,0,0
1.74258810238001E+018,25045,0,,0,0,0.965636193752,0,0
1.74258810240232E+018,25046,0,,0,0,0.965636193752,0,0
1.7425881024268E+018,25047,0,,0,0,0.965636193752,0,0
1.74258810245586E+018,25048,0,,0,0,0.965636193752,0,0
1.74258810247997E+018,25049,0,,0,0,0.965636193752,0,0
1.74258810250174E+018,25050,0,,0,0,0.965636193752,0,0
1.74258810252762E+018,25051,0,,0,0,0.965636193752,0,0
1.74258810255301E+018,25052,0,,0,0,0.965636193752,0,0
1.74258810257917E+018,25053,0,,0,0,0.965636193752,0,0
1.74258810260634E+018,25054,0,,0,0,0.965636193752,0,0
1.74258810262693E+018,25055,0,,0,0,0.965636193752,0,0
1.74258810265341E+018,25056,0,,0,0,0.965636193752,0,0
1.7425881026797E+018,25057,0,,0,0,0.965636193752,0,0
1.74258810270399E+018,25058,0,,0,0,0.965636193752,0,0
1.74258810272676E+018,25059,0,,0,0,0.965636193752,0,0
1.74258810275181E+018,25060,0,,0,0,0.965636193752,0,0
1.74258810277852E+018,25061,0,,0,0,0.965636193752,0,0
1.74258810280412E+018,25062,0,,0.0245606862009,0,0.965636193752,0,0
1.7425881028267E+018,25063,0,,0.061336454004,0,0.965636193752,0,0
1.7425881028569E+018,25064,0,,0.0981122255325,0,0.965636193752,0,0
1.7425881028852E+018,25065,0,,0.146214529872,0,0.965636193752,0,0
1.74258810290717E+018,25066,0,,0.182990297675,0,0.965636193752,0,0
1.7425881029265E+018,25067,0,,0.216937169433,0,0.965636193752,0,0
1.74258810295233E+018,25068,0,,0.248066052794,0,0.965636193752,0,0
1.74258810297647E+018,25069,0,,0.284841805696,0,0.965636193752,0,0
1.74258810300961E+018,25070,0,,0.301815241575,0,0.965636193752,0,0
1.74258810303498E+018,25071,0,,0.301815241575,0,0.965636193752,0,0
1.74258810305946E+018,25072,0,,0.301815241575,0,0.965636193752,0,0
1.74258810307795E+018,25073,0,,0.301815241575,0,0.965636193752,0,0
1.74258810310286E+018,25074,0,,0.301815241575,0,0.965636193752,0,0
1.74258810312661E+018,25075,0,,0.301815241575,0,0.965636193752,0,0
1.7425881031522E+018,25076,0,,0.301815241575,0,0.965636193752,0,0
1.74258810317944E+018,25077,0,,0.301815241575,0,0.965636193752,0,0
1.74258810320522E+018,25078,0,,0.236750423908,0,0.965636193752,0,0
1.74258810322763E+018,25079,0,,0.168845772743,0,0.965636193752,0,0
1.74258810325874E+018,25080,0,,0,0,0.965636193752,0,0
1.74258810328433E+018,25081,0,,0,0,0.965636193752,0,0
1.7425881033021E+018,25082,0,,0,0,0.965636193752,0,0
1.74258810333449E+018,25083,0,,0,0,0.965636193752,0,0
1.74258810335404E+018,25084,0,,0,0,0.965636193752,0,0
1.74258810337942E+018,25085,0,,0,0,0.965636193752,0,0
1.74258810340509E+018,25086,0,,0,0,0.940675199032,0,0
1.74258810342659E+018,25087,0,,0,0,0.890657007694,0,0
1.74258810345842E+018,25088,0,,0,0,0.890657007694,0,0
1.74258810347747E+018,25089,0,,0,0,0.865696072578,0,0
1.74258810350255E+018,25090,0,,0,0,0.865696072578,0,0
1.74258810353251E+018,25091,0,,0,0,0.865696072578,0,0
1.74258810355983E+018,25092,0,,0,0,0.865696072578,0,0
1.74258810358302E+018,25093,0,,0,0,0.865696072578,0,0
1.7425881036066E+018,25094,0,,0,0,0.865696072578,0,0
1.74258810363243E+018,25095,0,,0,0,0.865696072578,0,0
1.74258810365425E+018,25096,0,,0,0,0.865696072578,0,0
1.74258810368422E+018,25097,0,,0,0,0.865696072578,0,0
1.74258810370877E+018,25098,0,,0,0,0.865696072578,0,0
1.74258810373067E+018,25099,0,,0,0,0.865696072578,0,0
1.74258810375556E+018,25100,0,,0,0,0.865696072578,0,0
1.74258810377857E+018,25101,0,,0,0,0.865696072578,0,0
1.74258810380439E+018,25102,0,,0,0,0.865696072578,0,0
1.74258810383107E+018,25103,0,,0,0,0.865696072578,0,0
1.7425881038563E+018,25104,0,,0,0,0.865696072578,0,0
1.74258810388333E+018,25105,0,,0,0,0.865696072578,0,0
1.74258810390575E+018,25106,0,,0,0,0.965636193752,0,0
1.74258810392711E+018,25107,0,,0,0,0.965636193752,0,0
1.74258810395245E+018,25108,0,,0,0,0.965636193752,0,0
1.74258810398196E+018,25109,0,,0,0,0.965636193752,0,0
1.74258810400844E+018,25110,0,,0,0,0.965636193752,0,0
1.74258810402653E+018,25111,0,,0,0,0.965636193752,0,0
1.74258810405501E+018,25112,0,,0,0,0.965636193752,0,0
1.74258810407856E+018,25113,0,,0,0,0.965636193752,0,0
1.7425881041017E+018,25114,0,,0,0,0.965636193752,0,0
1.74258810413491E+018,25115,0,,0,0,0.965636193752,0,0
1.74258810415188E+018,25116,0,,0,0,1.01555800438,0,0
1.74258810418017E+018,25117,0,,0,0,1.01555800438,0,0
1.74258810420773E+018,25118,0,,0,0,1.01555800438,0,0
1.74258810423011E+018,25119,0,,0,0,1.01555800438,0,0
1.74258810425759E+018,25120,0,,0,0,1.01555800438,0,0
1.74258810428051E+018,25121,0,,0,0,1.01555800438,0,0
1.74258810430961E+018,25122,0,,0,0,1.01555800438,0,0
1.74258810432958E+018,25123,0,,0,0,1.01555800438,0,0
1.74258810435192E+018,25124,0,,0,0,1.01555800438,0,0
1.74258810438231E+018,25125,0,,0,0,1.01555800438,0,0
1.74258810440621E+018,25126,0,,0,0,1.01555800438,0,0
1.7425881044269E+018,25127,0,,0,0,1.01555800438,0,0
1.74258810445213E+018,25128,0,,0,0,1.01555800438,0,0
1.74258810448405E+018,25129,0,,0,0,1.01555800438,0,0
1.74258810450639E+018,25130,0,,0,0,1.01555800438,0,0
1.74258810452827E+018,25131,0,,0,0,1.01555800438,0,0
1.74258810455723E+018,25132,0,,0,0,1.01555800438,0,0
1.74258810458053E+018,25133,0,,0,0,1.01555800438,0,0
1.7425881046019E+018,25134,0,,0,0,1.01555800438,0,0
1.7425881046266E+018,25135,0,,0,0,1.01555800438,0,0
1.74258810465584E+018,25136,0,,0,0,1.01555800438,0,0
1.74258810468241E+018,25137,0,,0,0,1.01555800438,0,0
1.74258810470183E+018,25138,0,,0,0,1.01555800438,0,0
1.74258810473169E+018,25139,0,,0,0,1.01555800438,0,0
1.74258810475269E+018,25140,0,,0,0,1.01555800438,0,0
1.74258810478122E+018,25141,0,,0,0,1.01555800438,0,0
1.74258810480179E+018,25142,0,,0,0,1.01555800438,0,0
1.7425881048266E+018,25143,0,,0,0,1.01555800438,0,0
1.74258810485823E+018,25144,0,,0,0,1.01555800438,0,0
1.74258810488162E+018,25145,0,,0,0,1.01555800438,0,0
1.74258810490745E+018,25146,0,,0,0,1.01555800438,0,0
1.74258810492781E+018,25147,0,,0,0,1.01555800438,0,0
1.74258810495305E+018,25148,0,,0,0,1.01555800438,0,0
1.74258810497773E+018,25149,0,,0,0,1.01555800438,0,0
1.74258810500628E+018,25150,0,,0,0,1.01555800438,0,0
1.74258810502887E+018,25151,0,,0,0,1.01555800438,0,0
1.74258810505167E+018,25152,0,,0,0,1.01555800438,0,0
1.74258810507701E+018,25153,0,,0.0245606862009,0,1.06547987461,0,0
1.74258810510602E+018,25154,0,,0.106609858572,0,1.06547987461,0,0
1.74258810512729E+018,25155,0,,0.199963733554,0,1.06547987461,0,0
1.74258810515139E+018,25156,0,,0.29049962759,0,1.06547987461,0,0
1.74258810518118E+018,25157,0,,0.340000003576,0,1.06547987461,0,0
1.74258810520584E+018,25158,0,,0.340000003576,0,1.06547987461,0,0
1.74258810522852E+018,25159,0,,0.340000003576,0,1.06547987461,0,0
1.74258810525994E+018,25160,0,,0.340000003576,0,1.06547987461,0,0
1.74258810528424E+018,25161,0,,0.340000003576,0,1.06547987461,0,0
1.74258810530934E+018,25162,0,,0.340000003576,0,1.06547987461,0,0
1.74258810532882E+018,25163,0,,0.340000003576,0,1.06547987461,0,0
1.74258810535176E+018,25164,0,,0.340000003576,0,1.06547987461,0,0
1.74258810538401E+018,25165,0,,0.340000003576,0,1.06547987461,0,0
1.74258810540233E+018,25166,0,,0.340000003576,0,1.06547987461,0,0
1.74258810542717E+018,25167,0,,0.340000003576,0,1.06547987461,0,0
1.74258810545837E+018,25168,0,,0.340000003576,0,1.06547987461,0,0
1.74258810548353E+018,25169,0,,0.340000003576,0,1.06547987461,0,0
1.74258810550802E+018,25170,0,,0.340000003576,0,1.06547987461,0,0
1.74258810552978E+018,25171,0,,0.340000003576,0,1.06547987461,0,0
1.74258810555451E+018,25172,0,,0.340000003576,0,1.06547987461,0,0
1.74258810557769E+018,25173,0,,0.340000003576,0,1.06547987461,0,0
1.74258810560446E+018,25174,0,,0.340000003576,0,1.06547987461,0,0
1.74258810562676E+018,25175,0,,0.340000003576,0,1.06547987461,0,0
1.74258810565172E+018,25176,0,,0.340000003576,0,1.06547987461,0,0
1.74258810567663E+018,25177,0,,0.340000003576,0,1.06547987461,0,0
1.74258810570481E+018,25178,0,,0.340000003576,0,1.06547987461,0,0
1.74258810573354E+018,25179,0,,0.340000003576,0,1.06547987461,0,0
1.74258810575523E+018,25180,0,,0.340000003576,0,1.06547987461,0,0
1.74258810578155E+018,25181,0,,0.340000003576,0,0.965636193752,0,0
1.7425881058063E+018,25182,0,,0.340000003576,0,0.965636193752,0,0
1.74258810583064E+018,25183,0,,0.340000003576,0,0.965636193752,0,0
1.74258810585442E+018,25184,0,,0.340000003576,0,0.965636193752,0,0
1.74258810588121E+018,25185,0,,0.340000003576,0,0.965636193752,0,0
1.7425881059056E+018,25186,0,,0.284841805696,0,0.965636193752,0,0
1.7425881059273E+018,25187,0,,0.199963733554,0,0.965636193752,0,0
1.74258810595337E+018,25188,0,,0.0981122255325,0,0.965636193752,0,0
1.74258810598045E+018,25189,0,,0,0,0.965636193752,0,0
1.74258810600599E+018,25190,0,,0,0,0.965636193752,0,0
1.74258810603218E+018,25191,0,,0,0,0.965636193752,0,0
1.74258810605655E+018,25192,0,,0,0,0.965636193752,0,0
1.74258810608494E+018,25193,0,,0,0,0.965636193752,0,0
1.74258810610683E+018,25194,0,,0,0,0.965636193752,0,0
1.74258810612798E+018,25195,0,,0,0,0.965636193752,0,0
1.74258810615499E+018,25196,0,,0,0,0.965636193752,0,0
1.74258810618264E+018,25197,0,,0,0,0.965636193752,0,0
1.74258810620792E+018,25198,0,,0,0,0.965636193752,0,0
1.7425881062326E+018,25199,0,,0,0,0.965636193752,0,0
1.74258810625801E+018,25200,0,,0,0,0.965636193752,0,0
1.74258810628451E+018,25201,0,,0,0,0.965636193752,0,0
1.74258810630708E+018,25202,0,,0,0,0.965636193752,0,0
1.74258810632717E+018,25203,0,,0,0,0.965636193752,0,0
1.74258810635129E+018,25204,0,,0,0,0.965636193752,0,0
1.74258810637985E+018,25205,0,,0,0,1.06547987461,0,0
1.74258810640905E+018,25206,0,,0.00475834961981,0,1.06547987461,0,0
1.74258810642727E+018,25207,0,,0.061336454004,0,1.06547987461,0,0
1.7425881064568E+018,25208,0,,0.106609858572,0,1.06547987461,0,0
1.74258810647727E+018,25209,0,,0.160359054804,0,1.06547987461,0,0
1.7425881065062E+018,25210,0,,0.205621540546,0,1.06547987461,0,0
1.74258810652711E+018,25211,0,,0.245237141848,0,1.06547987461,0,0
1.74258810655801E+018,25212,0,,0.284841805696,0,1.06547987461,0,0
1.74258810658666E+018,25213,0,,0.330104291439,0,1.06547987461,0,0
1.74258810660443E+018,25214,0,,0.338591009378,0,1.06547987461,0,0
1.74258810662647E+018,25215,0,,0.338591009378,0,1.06547987461,0,0
1.74258810665795E+018,25216,0,,0.338591009378,0,1.06547987461,0,0
1.74258810667771E+018,25217,0,,0.340000003576,0,1.06547987461,0,0
1.7425881067104E+018,25218,0,,0.340000003576,0,1.06547987461,0,0
1.74258810672845E+018,25219,0,,0.340000003576,0,1.06547987461,0,0
1.74258810675835E+018,25220,0,,0.340000003576,0,1.06547987461,0,0
1.74258810678076E+018,25221,0,,0.340000003576,0,1.06547987461,0,0
1.7425881068062E+018,25222,0,,0.340000003576,0,1.06547987461,0,0
1.74258810682991E+018,25223,0,,0.340000003576,0,1.06547987461,0,0
1.74258810685149E+018,25224,0,,0.340000003576,0,1.06547987461,0,0
1.74258810687656E+018,25225,0,,0.340000003576,0,1.06547987461,0,0
1.74258810690185E+018,25226,0,,0.340000003576,0,1.06547987461,0,0
1.74258810693298E+018,25227,0,,0.340000003576,0,0.965636193752,0,0
1.74258810695454E+018,25228,0,,0.340000003576,0,0.965636193752,0,0
1.74258810698098E+018,25229,0,,0.340000003576,0,0.965636193752,0,0
1.74258810700438E+018,25230,0,,0.340000003576,0,0.965636193752,0,0
1.74258810702797E+018,25231,0,,0.340000003576,0,0.965636193752,0,0
1.74258810705196E+018,25232,0,,0.340000003576,0,0.965636193752,0,0
1.74258810707711E+018,25233,0,,0.340000003576,0,0.965636193752,0,0
1.74258810710788E+018,25234,0,,0.340000003576,0,0.965636193752,0,0
1.74258810713512E+018,25235,0,,0.340000003576,0,0.965636193752,0,0
1.74258810715433E+018,25236,0,,0.340000003576,0,0.965636193752,0,0
1.74258810717893E+018,25237,0,,0.340000003576,0,0.965636193752,0,0
1.74258810720724E+018,25238,0,,0.340000003576,0,0.965636193752,0,0
1.74258810722698E+018,25239,0,,0.340000003576,0,0.965636193752,0,0
1.74258810725814E+018,25240,0,,0.340000003576,0,0.965636193752,0,0
1.7425881072796E+018,25241,0,,0.340000003576,0,0.965636193752,0,0
1.7425881073031E+018,25242,0,,0.340000003576,0,0.965636193752,0,0
1.742588107328E+018,25243,0,,0.340000003576,0,0.965636193752,0,0
1.74258810735376E+018,25244,0,,0.340000003576,0,0.965636193752,0,0
1.7425881073772E+018,25245,0,,0.340000003576,0,0.965636193752,0,0
1.74258810740814E+018,25246,0,,0.340000003576,0,0.965636193752,0,0
1.74258810743357E+018,25247,0,,0.340000003576,0,0.965636193752,0,0
1.74258810745693E+018,25248,0,,0.340000003576,0,0.965636193752,0,0
1.74258810748365E+018,25249,0,,0.340000003576,0,0.965636193752,0,0
1.74258810750542E+018,25250,0,,0.340000003576,0,0.965636193752,0,0
1.74258810752673E+018,25251,0,,0.340000003576,0,0.965636193752,0,0
1.74258810755304E+018,25252,0,,0.340000003576,0,0.965636193752,0,0
1.74258810758095E+018,25253,0,,0.340000003576,0,0.965636193752,0,0
1.74258810760501E+018,25254,0,,0.340000003576,0,0.965636193752,0,0
1.74258810762671E+018,25255,0,,0.340000003576,0,0.965636193752,0,0
1.74258810765255E+018,25256,0,,0.340000003576,0,0.965636193752,0,0
1.74258810767706E+018,25257,0,,0.315959781408,0,0.965636193752,0,0
1.74258810770898E+018,25258,0,,0.231092616916,0,0.965636193752,0,0
1.74258810772737E+018,25259,0,,0.0783098861575,0,0.965636193752,0,0
1.74258810775584E+018,25260,0,,0,0,0.965636193752,0,0
1.74258810778588E+018,25261,0,,0,0,0.965636193752,0,0
1.74258810780417E+018,25262,0,,0,0,0.965636193752,0,0
1.74258810782642E+018,25263,0,,0,0,0.965636193752,0,0
1.74258810785161E+018,25264,0,,0,0,0.965636193752,0,0
1.74258810788344E+018,25265,0,,0,0,0.965636193752,0,0
1.7425881079067E+018,25266,0,,0,0,0.965636193752,0,0
1.74258810792814E+018,25267,0,,0,0,0.965636193752,0,0
1.74258810795576E+018,25268,0,,0,0,0.965636193752,0,0
1.74258810797967E+018,25269,0,,0,0,0.965636193752,0,0
1.74258810800524E+018,25270,0,,0,0,0.965636193752,0,0
1.74258810803091E+018,25271,0,,0,0,0.965636193752,0,0
1.74258810805867E+018,25272,0,,0,0,0.965636193752,0,0
1.74258810808494E+018,25273,0,,0,0,0.965636193752,0,0
1.74258810810766E+018,25274,0,,0,0,0.965636193752,0,0
1.74258810813326E+018,25275,0,,0,0,0.965636193752,0,0
1.74258810815158E+018,25276,0,,0,0,0.965636193752,0,0
1.74258810817684E+018,25277,0,,0,0,0.965636193752,0,0
1.74258810820268E+018,25278,0,,0,0,0.965636193752,0,0
1.7425881082314E+018,25279,0,,0.0132450656965,0,0.965636193752,0,0
1.74258810825204E+018,25280,0,,0.0160739701241,0,0.965636193752,0,0
1.74258810828111E+018,25281,0,,0.0217317808419,0,0.965636193752,0,0
1.74258810830225E+018,25282,0,,0.0217317808419,0,0.965636193752,0,0
1.7425881083286E+018,25283,0,,0.0217317808419,0,0.965636193752,0,0
1.74258810835393E+018,25284,0,,0.0217317808419,0,0.965636193752,0,0
1.74258810837873E+018,25285,0,,0.0217317808419,0,0.965636193752,0,0
1.74258810840214E+018,25286,0,,0.0217317808419,0,0.965636193752,0,0
1.74258810842787E+018,25287,0,,0.0217317808419,0,0.965636193752,0,0
1.74258810845274E+018,25288,0,,0.0217317808419,0,0.965636193752,0,0
1.74258810848258E+018,25289,0,,0.0217317808419,0,0.965636193752,0,0
1.74258810850684E+018,25290,0,,0.0302184969187,0,0.965636193752,0,0
1.74258810852691E+018,25291,0,,0.0981122255325,0,0.965636193752,0,0
1.74258810855254E+018,25292,0,,0.185819208622,0,0.965636193752,0,0
1.74258810858187E+018,25293,0,,0.262210577726,0,0.965636193752,0,0
1.74258810860683E+018,25294,0,,0.338591009378,0,0.965636193752,0,0
1.74258810862951E+018,25295,0,,0.338591009378,0,0.965636193752,0,0
1.74258810865668E+018,25296,0,,0.338591009378,0,0.965636193752,0,0
1.74258810868379E+018,25297,0,,0.338591009378,0,0.965636193752,0,0
1.74258810870642E+018,25298,0,,0.340000003576,0,0.965636193752,0,0
1.74258810872717E+018,25299,0,,0.340000003576,0,0.965636193752,0,0
1.74258810875735E+018,25300,0,,0.340000003576,0,0.965636193752,0,0
1.74258810878362E+018,25301,0,,0.340000003576,0,0.965636193752,0,0
1.74258810880655E+018,25302,0,,0.340000003576,0,0.965636193752,0,0
1.74258810882719E+018,25303,0,,0.340000003576,0,0.965636193752,0,0
1.74258810885791E+018,25304,0,,0.340000003576,0,0.965636193752,0,0
1.74258810888265E+018,25305,0,,0.340000003576,0,0.965636193752,0,0
1.74258810890972E+018,25306,0,,0.340000003576,0,0.965636193752,0,0
1.74258810892761E+018,25307,0,,0.340000003576,0,0.965636193752,0,0
1.74258810895273E+018,25308,0,,0.340000003576,0,0.965636193752,0,0
1.74258810898453E+018,25309,0,,0.340000003576,0,0.965636193752,0,0
1.74258810900482E+018,25310,0,,0.340000003576,0,0.965636193752,0,0
1.74258810902685E+018,25311,0,,0.340000003576,0,0.965636193752,0,0
1.74258810905693E+018,25312,0,,0.340000003576,0,0.965636193752,0,0
1.74258810908164E+018,25313,0,,0.340000003576,0,0.965636193752,0,0
1.74258810910468E+018,25314,0,,0.340000003576,0,0.965636193752,0,0
1.74258810912688E+018,25315,0,,0.340000003576,0,0.965636193752,0,0
1.74258810915627E+018,25316,0,,0.340000003576,0,0.965636193752,0,0
1.74258810917805E+018,25317,0,,0.340000003576,0,0.965636193752,0,0
