%time,field.header.seq,field.header.stamp,field.header.frame_id,field.drive.steering_angle,field.drive.steering_angle_velocity,field.drive.speed,field.drive.acceleration,field.drive.jerk
1.74249526301675E+018,19716,0,,0,0,0,0,0
1.74249526304188E+018,19717,0,,0,0,0.216711938381,0,0
1.74249526307188E+018,19718,0,,0,0,0.516243100166,0,0
1.74249526309981E+018,19719,0,,0,0,0.541204035282,0,0
1.7424952631175E+018,19720,0,,0,0,0.541204035282,0,0
1.7424952631467E+018,19721,0,,0,0,0.541204035282,0,0
1.74249526316738E+018,19722,0,,0,0,0.591125845909,0,0
1.7424952631921E+018,19723,0,,0,0,0.591125845909,0,0
1.74249526321756E+018,19724,0,,0,0,0.591125845909,0,0
1.74249526324314E+018,19725,0,,0,0,0.591125845909,0,0
1.7424952632705E+018,19726,0,,0,0,0.591125845909,0,0
1.74249526329817E+018,19727,0,,0,0,0.591125845909,0,0
1.74249526331681E+018,19728,0,,0,0,0.591125845909,0,0
1.74249526334584E+018,19729,0,,0,0,0.616086781025,0,0
1.74249526337456E+018,19730,0,,0,0,0.616086781025,0,0
1.74249526339215E+018,19731,0,,0,0,0.666008651257,0,0
1.74249526341762E+018,19732,0,,0,0,0.666008651257,0,0
1.74249526344745E+018,19733,0,,0,0,0.666008651257,0,0
1.74249526347023E+018,19734,0,,0,0,0.666008651257,0,0
1.74249526349362E+018,19735,0,,0,0,0.666008651257,0,0
1.74249526351839E+018,19736,0,,0,0,0.666008651257,0,0
1.74249526354297E+018,19737,0,,0,0,0.666008651257,0,0
1.74249526357417E+018,19738,0,,0,0,0.666008651257,0,0
1.74249526359268E+018,19739,0,,0,0,0.666008651257,0,0
1.74249526362385E+018,19740,0,,0,0,0.666008651257,0,0
1.74249526364211E+018,19741,0,,0,0,0.666008651257,0,0
1.74249526367306E+018,19742,0,,0,0,0.666008651257,0,0
1.74249526369188E+018,19743,0,,0,0,0.666008651257,0,0
1.74249526372265E+018,19744,0,,0,0,0.666008651257,0,0
1.7424952637522E+018,19745,0,,0,0,0.666008651257,0,0
1.74249526376686E+018,19746,0,,0,0,0.666008651257,0,0
1.7424952637987E+018,19747,0,,0,0,0.666008651257,0,0
1.74249526381703E+018,19748,0,,0,0,0.666008651257,0,0
1.74249526384934E+018,19749,0,,0,0,0.666008651257,0,0
1.7424952638669E+018,19750,0,,0,0,0.666008651257,0,0
1.74249526389804E+018,19751,0,,0,0,0.715930461884,0,0
1.74249526392294E+018,19752,0,,0,0,0.740891456604,0,0
1.742495263943E+018,19753,0,,0,0,0.740891456604,0,0
1.74249526397108E+018,19754,0,,0,0,0.790813326836,0,0
1.74249526399284E+018,19755,0,,0,0,0.790813326836,0,0
1.74249526401686E+018,19756,0,,0,0,0.790813326836,0,0
1.74249526404838E+018,19757,0,,0,0,0.790813326836,0,0
1.74249526406676E+018,19758,0,,0,0,0.790813326836,0,0
1.74249526409791E+018,19759,0,,0,0,0.790813326836,0,0
1.74249526412124E+018,19760,0,,0,0,0.790813326836,0,0
1.74249526414732E+018,19761,0,,0,0,0.790813326836,0,0
1.74249526416659E+018,19762,0,,0,0,0.790813326836,0,0
1.74249526419651E+018,19763,0,,0,0,0.790813326836,0,0
1.74249526421744E+018,19764,0,,0,0,0.790813326836,0,0
1.74249526424693E+018,19765,0,,0,0,0.790813326836,0,0
1.74249526426707E+018,19766,0,,0,0,0.790813326836,0,0
1.74249526429301E+018,19767,0,,0,0,0.790813326836,0,0
1.74249526432338E+018,19768,0,,0,0,0.790813326836,0,0
1.74249526434925E+018,19769,0,,0,0,0.790813326836,0,0
1.74249526436692E+018,19770,0,,0,0,0.790813326836,0,0
1.74249526439754E+018,19771,0,,0,0,0.790813326836,0,0
1.74249526442253E+018,19772,0,,0,0,0.790813326836,0,0
1.74249526444251E+018,19773,0,,0.00475834961981,0,0.790813326836,0,0
1.74249526447253E+018,19774,0,,0.0754809752107,0,0.790813326836,0,0
1.74249526449226E+018,19775,0,,0.106609858572,0,0.790813326836,0,0
1.74249526451883E+018,19776,0,,0.13207000494,0,0.790813326836,0,0
1.74249526454584E+018,19777,0,,0.137727811933,0,0.790813326836,0,0
1.7424952645667E+018,19778,0,,0.140556722879,0,0.790813326836,0,0
1.7424952645956E+018,19779,0,,0.140556722879,0,0.790813326836,0,0
1.74249526462444E+018,19780,0,,0.140556722879,0,0.790813326836,0,0
1.74249526464231E+018,19781,0,,0.140556722879,0,0.790813326836,0,0
1.74249526466722E+018,19782,0,,0.140556722879,0,0.790813326836,0,0
1.74249526469151E+018,19783,0,,0.140556722879,0,0.790813326836,0,0
1.7424952647201E+018,19784,0,,0.140556722879,0,0.790813326836,0,0
1.7424952647431E+018,19785,0,,0.140556722879,0,0.790813326836,0,0
1.74249526477333E+018,19786,0,,0.140556722879,0,0.790813326836,0,0
1.74249526480036E+018,19787,0,,0.140556722879,0,0.790813326836,0,0
1.74249526481845E+018,19788,0,,0.140556722879,0,0.790813326836,0,0
1.7424952648427E+018,19789,0,,0.140556722879,0,0.790813326836,0,0
1.74249526487141E+018,19790,0,,0.140556722879,0,0.790813326836,0,0
1.74249526489564E+018,19791,0,,0.140556722879,0,0.790813326836,0,0
1.74249526491978E+018,19792,0,,0.140556722879,0,0.790813326836,0,0
1.74249526494885E+018,19793,0,,0.140556722879,0,0.790813326836,0,0
1.74249526496666E+018,19794,0,,0.140556722879,0,0.790813326836,0,0
1.74249526499839E+018,19795,0,,0.140556722879,0,0.790813326836,0,0
1.74249526501925E+018,19796,0,,0.140556722879,0,0.790813326836,0,0
1.74249526504187E+018,19797,0,,0.140556722879,0,0.790813326836,0,0
1.74249526507149E+018,19798,0,,0.140556722879,0,0.790813326836,0,0
1.74249526509161E+018,19799,0,,0.140556722879,0,0.790813326836,0,0
1.74249526512247E+018,19800,0,,0.140556722879,0,0.790813326836,0,0
1.74249526514374E+018,19801,0,,0.140556722879,0,0.790813326836,0,0
1.74249526517089E+018,19802,0,,0.140556722879,0,0.790813326836,0,0
1.74249526519536E+018,19803,0,,0.140556722879,0,0.790813326836,0,0
1.74249526522016E+018,19804,0,,0.140556722879,0,0.790813326836,0,0
1.74249526524209E+018,19805,0,,0.140556722879,0,0.790813326836,0,0
1.74249526527046E+018,19806,0,,0.140556722879,0,0.790813326836,0,0
1.7424952652993E+018,19807,0,,0.140556722879,0,0.790813326836,0,0
1.74249526531769E+018,19808,0,,0.140556722879,0,0.790813326836,0,0
1.74249526534683E+018,19809,0,,0.140556722879,0,0.790813326836,0,0
1.74249526536703E+018,19810,0,,0.140556722879,0,0.790813326836,0,0
1.74249526539623E+018,19811,0,,0.140556722879,0,0.790813326836,0,0
1.74249526541691E+018,19812,0,,0.140556722879,0,0.790813326836,0,0
1.74249526544735E+018,19813,0,,0.140556722879,0,0.790813326836,0,0
1.7424952654784E+018,19814,0,,0.140556722879,0,0.790813326836,0,0
1.74249526549176E+018,19815,0,,0.140556722879,0,0.790813326836,0,0
1.74249526552188E+018,19816,0,,0.109438769519,0,0.790813326836,0,0
1.74249526554197E+018,19817,0,,0.0896255075932,0,0.790813326836,0,0
1.74249526557187E+018,19818,0,,0.0471919290721,0,0.790813326836,0,0
1.74249526560126E+018,19819,0,,0,0,0.940675199032,0,0
1.74249526561666E+018,19820,0,,0,0,1.06547987461,0,0
1.74249526564161E+018,19821,0,,0,0,1.19028449059,0,0
1.74249526567179E+018,19822,0,,0,0,1.21524548531,0,0
1.74249526569763E+018,19823,0,,0,0,1.21524548531,0,0
1.74249526571763E+018,19824,0,,0,0,1.21524548531,0,0
1.74249526574623E+018,19825,0,,0,0,1.21524548531,0,0
1.74249526577088E+018,19826,0,,0,0,1.21524548531,0,0
1.74249526579238E+018,19827,0,,0,0,1.26516735554,0,0
1.74249526582388E+018,19828,0,,0,0,1.26516735554,0,0
1.7424952658416E+018,19829,0,,0,0,1.26516735554,0,0
1.74249526587622E+018,19830,0,,0,0,1.26516735554,0,0
1.74249526589165E+018,19831,0,,0,0,1.26516735554,0,0
1.74249526592157E+018,19832,0,,0,0,1.26516735554,0,0
1.74249526594323E+018,19833,0,,0,0,1.26516735554,0,0
1.74249526596693E+018,19834,0,,0,0,1.26516735554,0,0
1.74249526599236E+018,19835,0,,0,0,1.26516735554,0,0
1.74249526602137E+018,19836,0,,0,0,1.26516735554,0,0
1.74249526604208E+018,19837,0,,0,0,1.26516735554,0,0
1.74249526607172E+018,19838,0,,0,0,1.26516735554,0,0
1.74249526609674E+018,19839,0,,0,0,1.26516735554,0,0
1.74249526611745E+018,19840,0,,0,0,1.26516735554,0,0
1.74249526614624E+018,19841,0,,0,0,1.26516735554,0,0
1.74249526616828E+018,19842,0,,0,0,1.26516735554,0,0
1.74249526619165E+018,19843,0,,0,0,1.26516735554,0,0
1.7424952662166E+018,19844,0,,0.0160739701241,0,1.26516735554,0,0
1.74249526625565E+018,19845,0,,0.0754809752107,0,1.26516735554,0,0
1.74249526626693E+018,19846,0,,0.160359054804,0,1.26516735554,0,0
1.74249526629675E+018,19847,0,,0.239579334855,0,1.26516735554,0,0
1.74249526631683E+018,19848,0,,0.29049962759,0,1.11540174484,0,0
1.74249526634621E+018,19849,0,,0.3216175735,0,1.11540174484,0,0
1.74249526636649E+018,19850,0,,0.332933187485,0,1.11540174484,0,0
1.74249526639725E+018,19851,0,,0.340000003576,0,1.11540174484,0,0
1.74249526641864E+018,19852,0,,0.340000003576,0,1.11540174484,0,0
1.74249526644917E+018,19853,0,,0.340000003576,0,1.06547987461,0,0
1.74249526646813E+018,19854,0,,0.340000003576,0,1.06547987461,0,0
1.74249526649652E+018,19855,0,,0.340000003576,0,1.06547987461,0,0
1.74249526652317E+018,19856,0,,0.340000003576,0,1.19028449059,0,0
1.74249526654253E+018,19857,0,,0.340000003576,0,1.19028449059,0,0
1.74249526657428E+018,19858,0,,0.340000003576,0,1.19028449059,0,0
1.74249526659173E+018,19859,0,,0.340000003576,0,1.19028449059,0,0
1.74249526662201E+018,19860,0,,0.340000003576,0,1.19028449059,0,0
1.74249526664198E+018,19861,0,,0.340000003576,0,1.19028449059,0,0
1.74249526666658E+018,19862,0,,0.340000003576,0,1.19028449059,0,0
1.74249526669613E+018,19863,0,,0.340000003576,0,1.19028449059,0,0
1.7424952667164E+018,19864,0,,0.340000003576,0,1.19028449059,0,0
1.74249526674952E+018,19865,0,,0.340000003576,0,1.19028449059,0,0
1.74249526677436E+018,19866,0,,0.340000003576,0,1.19028449059,0,0
1.74249526679226E+018,19867,0,,0.340000003576,0,1.19028449059,0,0
1.74249526682314E+018,19868,0,,0.340000003576,0,1.19028449059,0,0
1.74249526684401E+018,19869,0,,0.340000003576,0,1.19028449059,0,0
1.74249526686673E+018,19870,0,,0.340000003576,0,1.19028449059,0,0
1.7424952668952E+018,19871,0,,0.340000003576,0,1.19028449059,0,0
1.74249526692245E+018,19872,0,,0.340000003576,0,1.19028449059,0,0
1.74249526694262E+018,19873,0,,0.340000003576,0,1.19028449059,0,0
1.74249526697433E+018,19874,0,,0.310301959515,0,1.19028449059,0,0
1.74249526699238E+018,19875,0,,0.236750423908,0,1.21524548531,0,0
1.74249526702094E+018,19876,0,,0.177332490683,0,1.21524548531,0,0
1.74249526704164E+018,19877,0,,0,0,1.21524548531,0,0
1.74249526706739E+018,19878,0,,0,0,1.26516735554,0,0
1.74249526709341E+018,19879,0,,0,0,1.26516735554,0,0
1.74249526712198E+018,19880,0,,0,0,1.26516735554,0,0
1.74249526714161E+018,19881,0,,0,0,1.26516735554,0,0
1.74249526717279E+018,19882,0,,0,0,1.26516735554,0,0
1.74249526719848E+018,19883,0,,0,0,1.26516735554,0,0
1.74249526721689E+018,19884,0,,0,0,1.26516735554,0,0
1.74249526724843E+018,19885,0,,0.100941129029,0,1.26516735554,0,0
1.7424952672665E+018,19886,0,,0.13207000494,0,1.26516735554,0,0
1.74249526729143E+018,19887,0,,0.174503579736,0,1.26516735554,0,0
1.74249526732344E+018,19888,0,,0.182990297675,0,1.26516735554,0,0
1.74249526734642E+018,19889,0,,0.205621540546,0,1.26516735554,0,0
1.74249526736703E+018,19890,0,,0.222605898976,0,1.26516735554,0,0
1.7424952673978E+018,19891,0,,0.236750423908,0,1.26516735554,0,0
1.74249526742271E+018,19892,0,,0.239579334855,0,1.26516735554,0,0
1.74249526744191E+018,19893,0,,0.259381651878,0,1.26516735554,0,0
1.74249526746663E+018,19894,0,,0.29049962759,0,1.26516735554,0,0
1.74249526749537E+018,19895,0,,0.324446499348,0,1.26516735554,0,0
1.7424952675176E+018,19896,0,,0.340000003576,0,1.26516735554,0,0
1.74249526754384E+018,19897,0,,0.340000003576,0,1.26516735554,0,0
1.74249526757388E+018,19898,0,,0.340000003576,0,1.26516735554,0,0
1.74249526759262E+018,19899,0,,0.340000003576,0,1.29012823105,0,0
1.74249526762127E+018,19900,0,,0.340000003576,0,1.29012823105,0,0
1.74249526764756E+018,19901,0,,0.340000003576,0,1.34004998207,0,0
1.74249526766663E+018,19902,0,,0.340000003576,0,1.34004998207,0,0
1.74249526769701E+018,19903,0,,0.340000003576,0,1.34004998207,0,0
1.74249526771782E+018,19904,0,,0.340000003576,0,1.34004998207,0,0
1.74249526774737E+018,19905,0,,0.340000003576,0,1.34004998207,0,0
1.74249526776707E+018,19906,0,,0.340000003576,0,1.34004998207,0,0
1.74249526779868E+018,19907,0,,0.340000003576,0,1.34004998207,0,0
1.74249526781729E+018,19908,0,,0.340000003576,0,1.34004998207,0,0
1.74249526785051E+018,19909,0,,0.340000003576,0,1.34004998207,0,0
1.74249526786684E+018,19910,0,,0.340000003576,0,1.38997197151,0,0
1.74249526789672E+018,19911,0,,0.340000003576,0,1.38997197151,0,0
1.74249526791923E+018,19912,0,,0.340000003576,0,1.38997197151,0,0
1.74249526794775E+018,19913,0,,0.340000003576,0,1.38997197151,0,0
1.74249526796656E+018,19914,0,,0.340000003576,0,1.38997197151,0,0
1.74249526800144E+018,19915,0,,0.340000003576,0,1.38997197151,0,0
1.74249526801815E+018,19916,0,,0.29049962759,0,1.46485471725,0,0
1.74249526804736E+018,19917,0,,0.140556722879,0,1.48981571198,0,0
1.74249526806687E+018,19918,0,,0.0302184969187,0,1.58965945244,0,0
1.7424952680985E+018,19919,0,,0,0,1.61462020874,0,0
1.7424952681168E+018,19920,0,,0,0,1.66454207897,0,0
1.74249526814899E+018,19921,0,,0,0,1.66454207897,0,0
1.74249526816698E+018,19922,0,,0,0,1.66454207897,0,0
1.74249526819927E+018,19923,0,,0,0,1.66454207897,0,0
1.74249526821717E+018,19924,0,,0,0,1.66454207897,0,0
1.74249526824356E+018,19925,0,,0,0,1.66454207897,0,0
1.74249526827245E+018,19926,0,,0,0,1.66454207897,0,0
1.74249526829182E+018,19927,0,,0,0,1.66454207897,0,0
1.74249526832246E+018,19928,0,,0,0,1.66454207897,0,0
1.74249526834724E+018,19929,0,,0,0,1.66454207897,0,0
1.74249526836712E+018,19930,0,,0,0,1.66454207897,0,0
1.74249526839863E+018,19931,0,,0,0,1.66454207897,0,0
1.74249526841655E+018,19932,0,,0,0,1.66454207897,0,0
1.74249526844834E+018,19933,0,,0,0,1.66454207897,0,0
1.74249526846755E+018,19934,0,,0,0,1.66454207897,0,0
1.74249526849158E+018,19935,0,,0,0,1.66454207897,0,0
1.74249526852435E+018,19936,0,,0,0,1.66454207897,0,0
1.74249526854719E+018,19937,0,,0.0443630255759,0,1.66454207897,0,0
1.74249526857403E+018,19938,0,,0.154701247811,0,1.66454207897,0,0
1.74249526859554E+018,19939,0,,0.284841805696,0,1.66454207897,0,0
1.74249526862815E+018,19940,0,,0.340000003576,0,1.539737463,0,0
1.74249526864254E+018,19941,0,,0.340000003576,0,1.539737463,0,0
1.74249526867457E+018,19942,0,,0.340000003576,0,1.539737463,0,0
1.74249526869343E+018,19943,0,,0.340000003576,0,1.539737463,0,0
1.74249526872552E+018,19944,0,,0.340000003576,0,1.539737463,0,0
1.74249526874274E+018,19945,0,,0.340000003576,0,1.539737463,0,0
1.74249526876888E+018,19946,0,,0.340000003576,0,1.539737463,0,0
1.74249526880151E+018,19947,0,,0.340000003576,0,1.539737463,0,0
1.74249526881816E+018,19948,0,,0.340000003576,0,1.539737463,0,0
1.7424952688475E+018,19949,0,,0.340000003576,0,1.539737463,0,0
1.742495268867E+018,19950,0,,0.340000003576,0,1.539737463,0,0
1.7424952688925E+018,19951,0,,0.340000003576,0,1.539737463,0,0
1.74249526892553E+018,19952,0,,0.340000003576,0,1.539737463,0,0
1.7424952689416E+018,19953,0,,0.340000003576,0,1.539737463,0,0
1.74249526897446E+018,19954,0,,0.340000003576,0,1.539737463,0,0
1.74249526900255E+018,19955,0,,0.340000003576,0,1.539737463,0,0
1.74249526901779E+018,19956,0,,0.340000003576,0,1.539737463,0,0
1.74249526904238E+018,19957,0,,0.340000003576,0,1.539737463,0,0
1.74249526906701E+018,19958,0,,0.340000003576,0,1.539737463,0,0
1.74249526909224E+018,19959,0,,0.340000003576,0,1.539737463,0,0
1.7424952691216E+018,19960,0,,0.340000003576,0,1.539737463,0,0
1.74249526914201E+018,19961,0,,0.340000003576,0,1.539737463,0,0
1.74249526917142E+018,19962,0,,0.340000003576,0,1.539737463,0,0
1.74249526919718E+018,19963,0,,0.340000003576,0,1.539737463,0,0
1.74249526921977E+018,19964,0,,0.340000003576,0,1.539737463,0,0
1.74249526924972E+018,19965,0,,0.340000003576,0,1.539737463,0,0
1.74249526927177E+018,19966,0,,0.340000003576,0,1.539737463,0,0
1.74249526929227E+018,19967,0,,0.340000003576,0,1.539737463,0,0
1.74249526931723E+018,19968,0,,0.340000003576,0,1.539737463,0,0
1.74249526935291E+018,19969,0,,0.340000003576,0,1.539737463,0,0
1.74249526937521E+018,19970,0,,0.340000003576,0,1.539737463,0,0
1.7424952693921E+018,19971,0,,0.340000003576,0,1.539737463,0,0
1.74249526942222E+018,19972,0,,0.340000003576,0,1.539737463,0,0
1.74249526944466E+018,19973,0,,0.340000003576,0,1.539737463,0,0
1.74249526946703E+018,19974,0,,0.340000003576,0,1.539737463,0,0
1.74249526949242E+018,19975,0,,0.340000003576,0,1.539737463,0,0
1.74249526952111E+018,19976,0,,0.340000003576,0,1.539737463,0,0
1.74249526954633E+018,19977,0,,0.340000003576,0,1.539737463,0,0
1.74249526956733E+018,19978,0,,0.340000003576,0,1.539737463,0,0
1.74249526959735E+018,19979,0,,0.340000003576,0,1.539737463,0,0
1.74249526961849E+018,19980,0,,0.340000003576,0,1.539737463,0,0
1.74249526964988E+018,19981,0,,0.340000003576,0,1.539737463,0,0
1.7424952696717E+018,19982,0,,0.340000003576,0,1.539737463,0,0
1.74249526969143E+018,19983,0,,0.340000003576,0,1.539737463,0,0
1.74249526972195E+018,19984,0,,0.340000003576,0,1.539737463,0,0
1.7424952697422E+018,19985,0,,0.340000003576,0,1.539737463,0,0
1.74249526976728E+018,19986,0,,0.340000003576,0,1.539737463,0,0
1.74249526979291E+018,19987,0,,0.340000003576,0,1.539737463,0,0
1.74249526981776E+018,19988,0,,0.340000003576,0,1.539737463,0,0
1.74249526984213E+018,19989,0,,0.340000003576,0,1.539737463,0,0
1.74249526987639E+018,19990,0,,0.214108258486,0,1.539737463,0,0
1.74249526989178E+018,19991,0,,0.115096576512,0,1.539737463,0,0
1.74249526992121E+018,19992,0,,0,0,1.539737463,0,0
1.74249526995193E+018,19993,0,,0,0,1.539737463,0,0
1.74249526996661E+018,19994,0,,0,0,1.539737463,0,0
1.74249526999897E+018,19995,0,,0,0,1.539737463,0,0
1.74249527001758E+018,19996,0,,0,0,1.539737463,0,0
1.74249527004173E+018,19997,0,,0,0,1.539737463,0,0
1.74249527007231E+018,19998,0,,0,0,1.539737463,0,0
1.74249527009177E+018,19999,0,,0,0,1.539737463,0,0
1.74249527012831E+018,20000,0,,0,0,1.539737463,0,0
1.74249527014166E+018,20001,0,,0,0,1.539737463,0,0
1.74249527017368E+018,20002,0,,0,0,1.539737463,0,0
1.74249527019228E+018,20003,0,,0,0,1.539737463,0,0
1.74249527022184E+018,20004,0,,0,0,1.539737463,0,0
1.74249527024217E+018,20005,0,,0,0,1.539737463,0,0
1.74249527027748E+018,20006,0,,0,0,1.539737463,0,0
1.74249527029212E+018,20007,0,,0,0,1.539737463,0,0
1.74249527032458E+018,20008,0,,0,0,1.539737463,0,0
1.74249527034193E+018,20009,0,,0,0,1.539737463,0,0
1.74249527037357E+018,20010,0,,0,0,1.539737463,0,0
1.74249527039159E+018,20011,0,,0,0,1.539737463,0,0
1.74249527042337E+018,20012,0,,0,0,1.539737463,0,0
1.74249527044196E+018,20013,0,,0,0,1.66454207897,0,0
1.74249527047123E+018,20014,0,,0,0,1.66454207897,0,0
1.74249527049177E+018,20015,0,,0,0,1.66454207897,0,0
1.74249527052207E+018,20016,0,,0,0,1.68950307369,0,0
1.74249527054911E+018,20017,0,,0,0,1.68950307369,0,0
1.74249527056656E+018,20018,0,,0,0,1.68950307369,0,0
1.74249527059772E+018,20019,0,,0,0,1.68950307369,0,0
1.74249527061727E+018,20020,0,,0,0,1.68950307369,0,0
1.74249527064142E+018,20021,0,,0,0,1.68950307369,0,0
1.74249527067058E+018,20022,0,,0,0,1.68950307369,0,0
1.74249527069898E+018,20023,0,,0.0245606862009,0,1.68950307369,0,0
1.74249527071742E+018,20024,0,,0.0754809752107,0,1.68950307369,0,0
1.74249527074827E+018,20025,0,,0.146214529872,0,1.68950307369,0,0
1.7424952707714E+018,20026,0,,0.194305926561,0,1.68950307369,0,0
1.74249527079389E+018,20027,0,,0.248066052794,0,1.68950307369,0,0
1.74249527082636E+018,20028,0,,0.310301959515,0,1.68950307369,0,0
1.74249527084235E+018,20029,0,,0.3216175735,0,1.68950307369,0,0
1.74249527086663E+018,20030,0,,0.3216175735,0,1.68950307369,0,0
1.74249527090025E+018,20031,0,,0.3216175735,0,1.68950307369,0,0
1.74249527091808E+018,20032,0,,0.3216175735,0,1.68950307369,0,0
1.74249527095824E+018,20033,0,,0.3216175735,0,1.68950307369,0,0
1.74249527096712E+018,20034,0,,0.3216175735,0,1.68950307369,0,0
1.74249527099834E+018,20035,0,,0.3216175735,0,1.68950307369,0,0
1.74249527101875E+018,20036,0,,0.307473063469,0,1.68950307369,0,0
1.74249527104922E+018,20037,0,,0.205621540546,0,1.68950307369,0,0
1.74249527106672E+018,20038,0,,0.0132450656965,0,1.68950307369,0,0
1.74249527109774E+018,20039,0,,0,0,1.68950307369,0,0
1.7424952711172E+018,20040,0,,0,0,1.68950307369,0,0
1.74249527114253E+018,20041,0,,0,0,1.68950307369,0,0
1.74249527117544E+018,20042,0,,0,0,1.68950307369,0,0
1.74249527119204E+018,20043,0,,0,0,1.68950307369,0,0
1.74249527122514E+018,20044,0,,0,0,1.68950307369,0,0
1.74249527125179E+018,20045,0,,0,0,1.68950307369,0,0
1.74249527126716E+018,20046,0,,0,0,1.68950307369,0,0
1.74249527129335E+018,20047,0,,0,0,1.68950307369,0,0
1.74249527132469E+018,20048,0,,0,0,1.68950307369,0,0
1.74249527135086E+018,20049,0,,0,0,1.68950307369,0,0
1.74249527136877E+018,20050,0,,0,0,1.68950307369,0,0
1.74249527139223E+018,20051,0,,0,0,1.68950307369,0,0
1.74249527142349E+018,20052,0,,0,0,1.68950307369,0,0
1.74249527144295E+018,20053,0,,0,0,1.68950307369,0,0
1.74249527147168E+018,20054,0,,0,0,1.58965945244,0,0
1.74249527149232E+018,20055,0,,0,0,1.58965945244,0,0
1.74249527152219E+018,20056,0,,0,0,1.58965945244,0,0
1.74249527154957E+018,20057,0,,0,0,1.58965945244,0,0
1.74249527157478E+018,20058,0,,0,0,1.58965945244,0,0
1.74249527159311E+018,20059,0,,0,0,1.58965945244,0,0
1.74249527161803E+018,20060,0,,0,0,1.58965945244,0,0
1.7424952716463E+018,20061,0,,0,0,1.58965945244,0,0
1.74249527166753E+018,20062,0,,0,0,1.58965945244,0,0
1.74249527169337E+018,20063,0,,0,0,1.58965945244,0,0
1.74249527172179E+018,20064,0,,0,0,1.58965945244,0,0
1.74249527174959E+018,20065,0,,0,0,1.58965945244,0,0
1.7424952717673E+018,20066,0,,0,0,1.58965945244,0,0
1.74249527179682E+018,20067,0,,0,0,1.58965945244,0,0
1.74249527181737E+018,20068,0,,0,0,1.58965945244,0,0
1.74249527184943E+018,20069,0,,0,0,1.58965945244,0,0
1.74249527186695E+018,20070,0,,0,0,1.68950307369,0,0
1.74249527189692E+018,20071,0,,0,0,1.68950307369,0,0
1.74249527191695E+018,20072,0,,0,0,1.68950307369,0,0
1.74249527194449E+018,20073,0,,0,0,1.68950307369,0,0
1.74249527197193E+018,20074,0,,0,0,1.68950307369,0,0
1.74249527199771E+018,20075,0,,0,0,1.68950307369,0,0
1.74249527201739E+018,20076,0,,0,0,1.68950307369,0,0
1.74249527204246E+018,20077,0,,0,0,1.68950307369,0,0
1.74249527207358E+018,20078,0,,0,0,1.68950307369,0,0
1.74249527209227E+018,20079,0,,0,0,1.68950307369,0,0
1.74249527212833E+018,20080,0,,0,0,1.68950307369,0,0
1.74249527214282E+018,20081,0,,0,0,1.68950307369,0,0
1.7424952721707E+018,20082,0,,0,0,1.68950307369,0,0
1.74249527219243E+018,20083,0,,0,0,1.68950307369,0,0
1.74249527222014E+018,20084,0,,0,0,1.68950307369,0,0
1.74249527224629E+018,20085,0,,0.0132450656965,0,1.68950307369,0,0
1.742495272267E+018,20086,0,,0.0443630255759,0,1.73942494392,0,0
1.74249527229993E+018,20087,0,,0.0698231682181,0,1.73942494392,0,0
1.74249527232264E+018,20088,0,,0.0924544110894,0,1.73942494392,0,0
1.74249527234188E+018,20089,0,,0.0981122255325,0,1.73942494392,0,0
1.74249527237334E+018,20090,0,,0.123583294451,0,1.73942494392,0,0
1.74249527240096E+018,20091,0,,0.160359054804,0,1.73942494392,0,0
1.74249527241816E+018,20092,0,,0.174503579736,0,1.73942494392,0,0
1.74249527245153E+018,20093,0,,0.245237141848,0,1.73942494392,0,0
1.74249527246688E+018,20094,0,,0.330104291439,0,1.73942494392,0,0
1.74249527249687E+018,20095,0,,0.340000003576,0,1.73942494392,0,0
1.7424952725222E+018,20096,0,,0.340000003576,0,1.73942494392,0,0
1.74249527254231E+018,20097,0,,0.340000003576,0,1.73942494392,0,0
1.74249527257089E+018,20098,0,,0.340000003576,0,1.73942494392,0,0
1.7424952725978E+018,20099,0,,0.340000003576,0,1.73942494392,0,0
1.74249527261861E+018,20100,0,,0.340000003576,0,1.73942494392,0,0
1.74249527264609E+018,20101,0,,0.340000003576,0,1.73942494392,0,0
1.74249527266672E+018,20102,0,,0.340000003576,0,1.73942494392,0,0
1.74249527270036E+018,20103,0,,0.340000003576,0,1.73942494392,0,0
1.74249527272653E+018,20104,0,,0.340000003576,0,1.73942494392,0,0
1.74249527274148E+018,20105,0,,0.340000003576,0,1.73942494392,0,0
1.74249527276691E+018,20106,0,,0.340000003576,0,1.73942494392,0,0
1.74249527279738E+018,20107,0,,0.340000003576,0,1.73942494392,0,0
1.74249527283095E+018,20108,0,,0.340000003576,0,1.73942494392,0,0
1.74249527284169E+018,20109,0,,0.340000003576,0,1.73942494392,0,0
1.74249527287365E+018,20110,0,,0.340000003576,0,1.73942494392,0,0
1.74249527289136E+018,20111,0,,0.340000003576,0,1.73942494392,0,0
1.74249527292027E+018,20112,0,,0.340000003576,0,1.73942494392,0,0
1.74249527294609E+018,20113,0,,0.340000003576,0,1.73942494392,0,0
1.74249527296791E+018,20114,0,,0.340000003576,0,1.73942494392,0,0
1.74249527299783E+018,20115,0,,0.340000003576,0,1.73942494392,0,0
1.74249527302343E+018,20116,0,,0.340000003576,0,1.73942494392,0,0
1.74249527304187E+018,20117,0,,0.340000003576,0,1.73942494392,0,0
1.74249527306982E+018,20118,0,,0.340000003576,0,1.73942494392,0,0
1.74249527309243E+018,20119,0,,0.340000003576,0,1.73942494392,0,0
1.7424952731165E+018,20120,0,,0.340000003576,0,1.73942494392,0,0
1.74249527314555E+018,20121,0,,0.340000003576,0,1.73942494392,0,0
1.74249527316737E+018,20122,0,,0.340000003576,0,1.73942494392,0,0
1.74249527319895E+018,20123,0,,0.340000003576,0,1.73942494392,0,0
1.74249527322485E+018,20124,0,,0.340000003576,0,1.73942494392,0,0
1.74249527324251E+018,20125,0,,0.340000003576,0,1.73942494392,0,0
1.74249527326886E+018,20126,0,,0.340000003576,0,1.73942494392,0,0
1.74249527329881E+018,20127,0,,0.340000003576,0,1.73942494392,0,0
1.74249527331756E+018,20128,0,,0.340000003576,0,1.73942494392,0,0
1.7424952733475E+018,20129,0,,0.340000003576,0,1.73942494392,0,0
1.74249527336662E+018,20130,0,,0.340000003576,0,1.73942494392,0,0
1.74249527339639E+018,20131,0,,0.340000003576,0,1.73942494392,0,0
1.74249527342344E+018,20132,0,,0.340000003576,0,1.73942494392,0,0
1.74249527344935E+018,20133,0,,0.340000003576,0,1.73942494392,0,0
1.74249527346847E+018,20134,0,,0.324446499348,0,1.73942494392,0,0
1.74249527349486E+018,20135,0,,0.216937169433,0,1.73942494392,0,0
1.74249527351954E+018,20136,0,,0.13207000494,0,1.73942494392,0,0
1.74249527354644E+018,20137,0,,0,0,1.73942494392,0,0
1.7424952735667E+018,20138,0,,0,0,1.73942494392,0,0
1.74249527359871E+018,20139,0,,0,0,1.73942494392,0,0
1.74249527362287E+018,20140,0,,0,0,1.73942494392,0,0
1.74249527364324E+018,20141,0,,0,0,1.73942494392,0,0
1.74249527366664E+018,20142,0,,0,0,1.73942494392,0,0
1.74249527369987E+018,20143,0,,0,0,1.73942494392,0,0
1.74249527371697E+018,20144,0,,0,0,1.73942494392,0,0
1.74249527374149E+018,20145,0,,0,0,1.73942494392,0,0
1.74249527376697E+018,20146,0,,0,0,1.73942494392,0,0
1.74249527379411E+018,20147,0,,0,0,1.73942494392,0,0
1.74249527382668E+018,20148,0,,0,0,1.73942494392,0,0
1.74249527384195E+018,20149,0,,0,0,1.78934693336,0,0
1.74249527387538E+018,20150,0,,0,0,1.78934693336,0,0
1.74249527389159E+018,20151,0,,0.061336454004,0,1.81430768967,0,0
1.74249527392484E+018,20152,0,,0.137727811933,0,1.81430768967,0,0
1.74249527395145E+018,20153,0,,0.239579334855,0,1.81430768967,0,0
1.74249527396657E+018,20154,0,,0.324446499348,0,1.81430768967,0,0
1.74249527400132E+018,20155,0,,0.324446499348,0,1.81430768967,0,0
1.74249527401878E+018,20156,0,,0.330104291439,0,1.81430768967,0,0
1.7424952740505E+018,20157,0,,0.330104291439,0,1.81430768967,0,0
1.74249527406785E+018,20158,0,,0.330104291439,0,1.81430768967,0,0
1.74249527409202E+018,20159,0,,0.330104291439,0,1.81430768967,0,0
1.74249527412417E+018,20160,0,,0.330104291439,0,1.81430768967,0,0
1.74249527414343E+018,20161,0,,0.330104291439,0,1.81430768967,0,0
1.74249527416663E+018,20162,0,,0.330104291439,0,1.81430768967,0,0
1.74249527420168E+018,20163,0,,0.330104291439,0,1.81430768967,0,0
1.74249527421802E+018,20164,0,,0.330104291439,0,1.81430768967,0,0
1.74249527425263E+018,20165,0,,0.330104291439,0,1.81430768967,0,0
1.74249527426651E+018,20166,0,,0.332933187485,0,1.81430768967,0,0
1.74249527429667E+018,20167,0,,0.332933187485,0,1.81430768967,0,0
1.74249527431742E+018,20168,0,,0.332933187485,0,1.81430768967,0,0
1.74249527434763E+018,20169,0,,0.332933187485,0,1.81430768967,0,0
1.74249527437043E+018,20170,0,,0.332933187485,0,1.81430768967,0,0
1.74249527439131E+018,20171,0,,0.332933187485,0,1.81430768967,0,0
1.74249527442254E+018,20172,0,,0.332933187485,0,1.81430768967,0,0
1.74249527445084E+018,20173,0,,0.332933187485,0,1.81430768967,0,0
1.74249527446695E+018,20174,0,,0.332933187485,0,1.81430768967,0,0
1.74249527449497E+018,20175,0,,0.332933187485,0,1.81430768967,0,0
1.74249527451723E+018,20176,0,,0.332933187485,0,1.81430768967,0,0
1.74249527454723E+018,20177,0,,0.225434809923,0,1.81430768967,0,0
1.74249527457226E+018,20178,0,,0,0,1.81430768967,0,0
1.74249527459186E+018,20179,0,,0,0,1.81430768967,0,0
1.74249527462282E+018,20180,0,,0,0,1.81430768967,0,0
1.74249527464177E+018,20181,0,,0,0,1.86422944069,0,0
1.74249527467144E+018,20182,0,,0,0,1.88919043541,0,0
1.74249527469862E+018,20183,0,,0,0,1.88919043541,0,0
1.74249527471718E+018,20184,0,,0,0,1.88919043541,0,0
1.74249527474643E+018,20185,0,,0,0,1.88919043541,0,0
1.74249527477078E+018,20186,0,,0,0,1.88919043541,0,0
1.74249527479159E+018,20187,0,,0,0,1.88919043541,0,0
1.74249527482442E+018,20188,0,,0,0,1.88919043541,0,0
1.74249527484198E+018,20189,0,,0,0,1.88919043541,0,0
1.74249527486708E+018,20190,0,,0,0,1.88919043541,0,0
1.74249527489508E+018,20191,0,,0,0,1.88919043541,0,0
1.74249527492634E+018,20192,0,,0,0,1.88919043541,0,0
1.74249527495647E+018,20193,0,,0,0,1.88919043541,0,0
1.74249527496689E+018,20194,0,,0,0,1.88919043541,0,0
1.7424952750015E+018,20195,0,,0,0,1.88919043541,0,0
1.74249527501772E+018,20196,0,,0,0,1.88919043541,0,0
1.74249527505022E+018,20197,0,,0,0,1.88919043541,0,0
1.74249527506808E+018,20198,0,,0,0,1.88919043541,0,0
1.74249527510048E+018,20199,0,,0.0245606862009,0,1.88919043541,0,0
1.7424952751194E+018,20200,0,,0.0896255075932,0,1.88919043541,0,0
1.74249527514282E+018,20201,0,,0.151872336864,0,1.88919043541,0,0
1.74249527517359E+018,20202,0,,0.245237141848,0,1.88919043541,0,0
1.74249527519183E+018,20203,0,,0.310301959515,0,1.78934693336,0,0
1.74249527522424E+018,20204,0,,0.3216175735,0,1.78934693336,0,0
1.74249527524319E+018,20205,0,,0.324446499348,0,1.78934693336,0,0
1.7424952752709E+018,20206,0,,0.324446499348,0,1.78934693336,0,0
1.74249527529274E+018,20207,0,,0.324446499348,0,1.78934693336,0,0
1.74249527531678E+018,20208,0,,0.324446499348,0,1.78934693336,0,0
1.74249527534224E+018,20209,0,,0.324446499348,0,1.78934693336,0,0
1.74249527537491E+018,20210,0,,0.324446499348,0,1.78934693336,0,0
1.74249527539169E+018,20211,0,,0.324446499348,0,1.78934693336,0,0
1.74249527541711E+018,20212,0,,0.324446499348,0,1.78934693336,0,0
1.7424952754482E+018,20213,0,,0.324446499348,0,1.78934693336,0,0
1.74249527547267E+018,20214,0,,0.324446499348,0,1.78934693336,0,0
1.74249527549154E+018,20215,0,,0.324446499348,0,1.88919043541,0,0
1.74249527552389E+018,20216,0,,0.324446499348,0,1.88919043541,0,0
1.74249527554693E+018,20217,0,,0.324446499348,0,1.88919043541,0,0
1.74249527556739E+018,20218,0,,0.324446499348,0,1.88919043541,0,0
1.7424952755973E+018,20219,0,,0.324446499348,0,1.88919043541,0,0
1.74249527561723E+018,20220,0,,0.324446499348,0,1.88919043541,0,0
1.74249527564793E+018,20221,0,,0.324446499348,0,1.88919043541,0,0
1.74249527567218E+018,20222,0,,0.324446499348,0,1.88919043541,0,0
1.74249527569357E+018,20223,0,,0.324446499348,0,1.88919043541,0,0
1.74249527572775E+018,20224,0,,0.324446499348,0,1.88919043541,0,0
1.74249527574194E+018,20225,0,,0.324446499348,0,1.88919043541,0,0
1.74249527577942E+018,20226,0,,0.324446499348,0,1.88919043541,0,0
1.74249527579159E+018,20227,0,,0.324446499348,0,1.88919043541,0,0
1.74249527582626E+018,20228,0,,0.324446499348,0,1.88919043541,0,0
1.7424952758424E+018,20229,0,,0.324446499348,0,1.88919043541,0,0
1.74249527586761E+018,20230,0,,0.324446499348,0,1.88919043541,0,0
1.74249527589192E+018,20231,0,,0.324446499348,0,1.88919043541,0,0
1.742495275917E+018,20232,0,,0.324446499348,0,1.88919043541,0,0
1.74249527595402E+018,20233,0,,0.324446499348,0,1.88919043541,0,0
1.74249527596733E+018,20234,0,,0.324446499348,0,1.88919043541,0,0
1.74249527599385E+018,20235,0,,0.324446499348,0,1.88919043541,0,0
1.74249527601739E+018,20236,0,,0.222605898976,0,1.88919043541,0,0
1.74249527605362E+018,20237,0,,0,0,1.88919043541,0,0
1.74249527606737E+018,20238,0,,0,0,1.78934693336,0,0
1.74249527609442E+018,20239,0,,0,0,1.78934693336,0,0
1.74249527612241E+018,20240,0,,0,0,1.78934693336,0,0
1.74249527614247E+018,20241,0,,0,0,1.78934693336,0,0
1.74249527617489E+018,20242,0,,0,0,1.78934693336,0,0
1.74249527619318E+018,20243,0,,0,0,1.78934693336,0,0
1.74249527622731E+018,20244,0,,0,0,1.78934693336,0,0
1.74249527624906E+018,20245,0,,0,0,1.78934693336,0,0
1.74249527626673E+018,20246,0,,0,0,1.78934693336,0,0
1.74249527629487E+018,20247,0,,0,0,1.78934693336,0,0
1.74249527631708E+018,20248,0,,0,0,1.78934693336,0,0
1.74249527634597E+018,20249,0,,0,0,1.78934693336,0,0
1.74249527637426E+018,20250,0,,0,0,1.78934693336,0,0
1.74249527639761E+018,20251,0,,0,0,1.78934693336,0,0
1.74249527641714E+018,20252,0,,0,0,1.78934693336,0,0
1.74249527644441E+018,20253,0,,0,0,1.78934693336,0,0
1.74249527647167E+018,20254,0,,0,0,1.78934693336,0,0
1.74249527649251E+018,20255,0,,0,0,1.78934693336,0,0
1.74249527652442E+018,20256,0,,0,0,1.78934693336,0,0
1.74249527654888E+018,20257,0,,0,0,1.78934693336,0,0
1.74249527656711E+018,20258,0,,0,0,1.78934693336,0,0
1.74249527660176E+018,20259,0,,0,0,1.78934693336,0,0
1.74249527661802E+018,20260,0,,0,0,1.78934693336,0,0
1.74249527665109E+018,20261,0,,0,0,1.9891307354,0,0
1.74249527666744E+018,20262,0,,0,0,2.21377897263,0,0
1.74249527669721E+018,20263,0,,0,0,2.4883491993,0,0
1.74249527671668E+018,20264,0,,0,0,2.53827095032,0,0
1.74249527674767E+018,20265,0,,0,0,2.53827095032,0,0
1.74249527677569E+018,20266,0,,0,0,2.53827095032,0,0
1.74249527679191E+018,20267,0,,0,0,2.28866171837,0,0
1.74249527681679E+018,20268,0,,0,0,2.28866171837,0,0
1.74249527684155E+018,20269,0,,0,0,2.26370072365,0,0
1.74249527686702E+018,20270,0,,0,0,2.26370072365,0,0
1.74249527689139E+018,20271,0,,0,0,2.26370072365,0,0
1.74249527692115E+018,20272,0,,0,0,2.26370072365,0,0
1.74249527694157E+018,20273,0,,0,0,2.26370072365,0,0
1.7424952769727E+018,20274,0,,0,0,2.21377897263,0,0
1.74249527700827E+018,20275,0,,0,0,1.93911230564,0,0
1.74249527701856E+018,20276,0,,0,0,1.38997197151,0,0
1.74249527704222E+018,20277,0,,0,0,0,0,0
1.74249527707819E+018,20278,0,,0,0,0,0,0
1.74249527709313E+018,20279,0,,0,0,0,0,0
1.74249527712514E+018,20280,0,,0,0,0,0,0
1.742495277142E+018,20281,0,,0,0,0,0,0
1.74249527717263E+018,20282,0,,0,0,0,0,0
1.74249527719619E+018,20283,0,,0,0,0,0,0
1.74249527721886E+018,20284,0,,0,0,0,0,0
1.74249527725003E+018,20285,0,,0,0,0,0,0
1.7424952772667E+018,20286,0,,0,0,0,0,0
1.74249527729475E+018,20287,0,,0,0,0,0,0
1.74249527732223E+018,20288,0,,0,0,0,0,0
1.74249527735321E+018,20289,0,,0,0,0,0,0
1.74249527736728E+018,20290,0,,0,0,0,0,0
1.74249527740026E+018,20291,0,,0,0,0,0,0
1.74249527741781E+018,20292,0,,0,0,0,0,0
1.74249527744823E+018,20293,0,,0,0,0,0,0
1.74249527746672E+018,20294,0,,0,0,0,0,0
1.74249527749641E+018,20295,0,,0,0,0,0,0
1.74249527752458E+018,20296,0,,0,0,0,0,0
1.74249527754184E+018,20297,0,,0,0,0,0,0
1.74249527756978E+018,20298,0,,0,0,0,0,0
1.74249527760136E+018,20299,0,,0,0,0,0,0
1.74249527761794E+018,20300,0,,0,0,0,0,0
1.74249527764673E+018,20301,0,,0,0,0,0,0
1.74249527766671E+018,20302,0,,0,0,0,0,0
1.74249527769591E+018,20303,0,,0,0,0,0,0
1.74249527772239E+018,20304,0,,0,0,0,0,0
1.74249527774958E+018,20305,0,,0,0,0,0,0
1.74249527776686E+018,20306,0,,0,0,0,0,0
1.74249527780066E+018,20307,0,,0,0,0,0,0
1.74249527782124E+018,20308,0,,0,0,0,0,0
1.74249527784224E+018,20309,0,,0,0,0,0,0
1.74249527786712E+018,20310,0,,0,0,0,0,0
1.74249527789184E+018,20311,0,,0,0,0,0,0
1.74249527791926E+018,20312,0,,0,0,0,0,0
1.74249527794172E+018,20313,0,,0,0,0,0,0
1.74249527797396E+018,20314,0,,0,0,0,0,0
1.74249527800457E+018,20315,0,,0,0,0,0,0
1.7424952780183E+018,20316,0,,0,0,0,0,0
1.74249527804314E+018,20317,0,,0,0,0,0,0
1.7424952780713E+018,20318,0,,0,0,0,0,0
1.74249527809477E+018,20319,0,,0,0,0,0,0
1.74249527812133E+018,20320,0,,0,0,0,0,0
1.74249527814999E+018,20321,0,,0,0,0,0,0
1.74249527816731E+018,20322,0,,0,0,0,0,0
1.74249527819956E+018,20323,0,,0,0,0,0,0
1.74249527821831E+018,20324,0,,0,0,0,0,0
1.74249527824992E+018,20325,0,,0,0,0,0,0
1.74249527827084E+018,20326,0,,0,0,0,0,0
1.74249527829222E+018,20327,0,,0,0,0,0,0
1.74249527831683E+018,20328,0,,0,0,0,0,0
1.74249527834677E+018,20329,0,,0,0,0,0,0
1.7424952783684E+018,20330,0,,0,0,0,0,0
1.74249527839212E+018,20331,0,,0,0,0,0,0
1.74249527842995E+018,20332,0,,0,0,0,0,0
1.74249527844362E+018,20333,0,,0,0,0,0,0
1.74249527847525E+018,20334,0,,0,0,0,0,0
1.74249527849189E+018,20335,0,,0,0,0,0,0
1.74249527852174E+018,20336,0,,0,0,0,0,0
1.74249527854943E+018,20337,0,,0,0,0,0,0
1.74249527856741E+018,20338,0,,0,0,0,0,0
1.74249527859845E+018,20339,0,,0,0,0,0,0
1.74249527862512E+018,20340,0,,0,0,0,0,0
1.74249527864871E+018,20341,0,,0,0,0,0,0
1.74249527866684E+018,20342,0,,0,0,-1.96388053894,0,0
1.74249527869871E+018,20343,0,,0,0,-2.61296105385,0,0
1.74249527871828E+018,20344,0,,0,0,-2.98737502098,0,0
1.74249527875022E+018,20345,0,,0,0,-3,0,0
1.74249527876683E+018,20346,0,,0,0,-3,0,0
1.742495278797E+018,20347,0,,0,0,-3,0,0
1.7424952788182E+018,20348,0,,0,0,-3,0,0
1.74249527885125E+018,20349,0,,0,0,-3,0,0
1.7424952788676E+018,20350,0,,0,0,-3,0,0
1.74249527889515E+018,20351,0,,0,0,-3,0,0
1.74249527891731E+018,20352,0,,0,0,-3,0,0
1.74249527894615E+018,20353,0,,0,0,-3,0,0
1.74249527896744E+018,20354,0,,0,0,-3,0,0
1.74249527899767E+018,20355,0,,0,0,-3,0,0
1.74249527901786E+018,20356,0,,0,0,-3,0,0
1.74249527904422E+018,20357,0,,0,0,-3,0,0
1.74249527907525E+018,20358,0,,0,0,-2.83760929108,0,0
1.7424952790923E+018,20359,0,,0,0,-2.23854708672,0,0
1.74249527912317E+018,20360,0,,0,0,-0.366284757853,0,0
1.74249527914251E+018,20361,0,,0,0,-0.21651917696,0,0
1.74249527916913E+018,20362,0,,0,0,0,0,0
1.74249527920343E+018,20363,0,,0,0,0,0,0
1.74249527921975E+018,20364,0,,0,0,0,0,0
1.74249527924713E+018,20365,0,,0,0,0,0,0
1.74249527926687E+018,20366,0,,0,0,0,0,0
1.74249527929163E+018,20367,0,,0,0,0,0,0
1.7424952793228E+018,20368,0,,0,0,0,0,0
1.7424952793415E+018,20369,0,,0,0,0,0,0
1.74249527937228E+018,20370,0,,0,0,0,0,0
1.74249527939253E+018,20371,0,,0,0,0,0,0
1.74249527942045E+018,20372,0,,0,0,0,0,0
1.74249527945016E+018,20373,0,,0,0,0,0,0
1.74249527946816E+018,20374,0,,0,0,0,0,0
1.742495279497E+018,20375,0,,0,0,0,0,0
1.74249527951708E+018,20376,0,,0,0,0,0,0
1.74249527954687E+018,20377,0,,0,0,0,0,0
1.74249527956943E+018,20378,0,,0,0,0,0,0
1.74249527959747E+018,20379,0,,0,0,0,0,0
1.74249527961812E+018,20380,0,,0,0,0,0,0
1.74249527964505E+018,20381,0,,0,0,0,0,0
1.7424952796713E+018,20382,0,,0,0,0,0,0
1.74249527969263E+018,20383,0,,0,0,0.216711938381,0,0
1.74249527972458E+018,20384,0,,0,0,0.466321229935,0,0
1.74249527974204E+018,20385,0,,0,0,0.466321229935,0,0
1.74249527977158E+018,20386,0,,0,0,0.466321229935,0,0
1.742495279801E+018,20387,0,,0,0,0.466321229935,0,0
1.74249527981816E+018,20388,0,,0,0,0.216711938381,0,0
1.74249527984858E+018,20389,0,,0,0,0.191751003265,0,0
1.74249527986683E+018,20390,0,,-0.0217099357396,0,0.191751003265,0,0
1.74249527989175E+018,20391,0,,-0.0754591301084,0,0.141829162836,0,0
1.74249527991715E+018,20392,0,,-0.115074723959,0,0.141829162836,0,0
1.74249527995091E+018,20393,0,,-0.129219263792,0,0.141829162836,0,0
1.74249527996682E+018,20394,0,,-0.132048159838,0,0.141829162836,0,0
1.74249527999238E+018,20395,0,,-0.14619268477,0,0.141829162836,0,0
1.74249528001839E+018,20396,0,,-0.14619268477,0,0.141829162836,0,0
1.74249528004242E+018,20397,0,,-0.14619268477,0,0.141829162836,0,0
1.74249528006703E+018,20398,0,,-0.14619268477,0,0.141829162836,0,0
1.74249528009194E+018,20399,0,,-0.14619268477,0,0.141829162836,0,0
1.74249528011745E+018,20400,0,,-0.154679402709,0,0.141829162836,0,0
1.7424952801419E+018,20401,0,,-0.17731064558,0,0.141829162836,0,0
1.74249528016686E+018,20402,0,,-0.18579736352,0,0.141829162836,0,0
1.74249528019128E+018,20403,0,,-0.191455170512,0,0.141829162836,0,0
1.74249528021811E+018,20404,0,,-0.194284081459,0,0.141829162836,0,0
1.7424952802422E+018,20405,0,,-0.199941888452,0,0.141829162836,0,0
1.74249528026666E+018,20406,0,,-0.208428606391,0,0.141829162836,0,0
1.74249528029215E+018,20407,0,,-0.21691532433,0,0.141829162836,0,0
1.74249528031736E+018,20408,0,,-0.222573131323,0,0.141829162836,0,0
1.7424952803428E+018,20409,0,,-0.239557489753,0,0.141829162836,0,0
1.7424952803668E+018,20410,0,,-0.25653091073,0,0.141829162836,0,0
1.74249528039229E+018,20411,0,,-0.279162168503,0,0.141829162836,0,0
1.74249528041688E+018,20412,0,,-0.301793396473,0,0.141829162836,0,0
1.74249528044175E+018,20413,0,,-0.307451218367,0,0.141829162836,0,0
1.74249528046694E+018,20414,0,,-0.307451218367,0,0.141829162836,0,0
1.7424952804917E+018,20415,0,,-0.307451218367,0,0.141829162836,0,0
1.74249528051718E+018,20416,0,,-0.307451218367,0,0.141829162836,0,0
1.7424952805421E+018,20417,0,,-0.307451218367,0,0.416399359703,0,0
1.74249528056721E+018,20418,0,,-0.307451218367,0,0.591125845909,0,0
1.74249528059166E+018,20419,0,,-0.307451218367,0,0.666008651257,0,0
1.74249528061719E+018,20420,0,,-0.307451218367,0,0.666008651257,0,0
1.74249528064625E+018,20421,0,,-0.307451218367,0,0.666008651257,0,0
1.7424952806677E+018,20422,0,,-0.307451218367,0,0.740891456604,0,0
1.74249528069591E+018,20423,0,,-0.307451218367,0,0.740891456604,0,0
1.74249528072442E+018,20424,0,,-0.307451218367,0,0.790813326836,0,0
1.74249528074227E+018,20425,0,,-0.307451218367,0,0.790813326836,0,0
1.74249528077354E+018,20426,0,,-0.307451218367,0,0.790813326836,0,0
1.74249528079629E+018,20427,0,,-0.307451218367,0,0.790813326836,0,0
1.74249528081823E+018,20428,0,,-0.307451218367,0,0.790813326836,0,0
1.74249528084443E+018,20429,0,,-0.307451218367,0,0.790813326836,0,0
1.74249528086924E+018,20430,0,,-0.307451218367,0,0.790813326836,0,0
1.74249528089706E+018,20431,0,,-0.307451218367,0,0.790813326836,0,0
1.74249528092868E+018,20432,0,,-0.307451218367,0,0.790813326836,0,0
1.74249528094235E+018,20433,0,,-0.307451218367,0,0.790813326836,0,0
1.74249528097437E+018,20434,0,,-0.307451218367,0,0.790813326836,0,0
1.74249528099146E+018,20435,0,,-0.307451218367,0,0.790813326836,0,0
1.74249528102296E+018,20436,0,,-0.279162168503,0,0.790813326836,0,0
1.74249528104233E+018,20437,0,,-0.267846524715,0,0.790813326836,0,0
1.74249528107152E+018,20438,0,,-0.18579736352,0,0.790813326836,0,0
1.7424952810979E+018,20439,0,,0,0,0.790813326836,0,0
1.74249528112298E+018,20440,0,,0,0,0.790813326836,0,0
1.74249528114206E+018,20441,0,,0,0,0.790813326836,0,0
1.74249528117507E+018,20442,0,,0,0,0.790813326836,0,0
1.74249528119178E+018,20443,0,,0,0,0.790813326836,0,0
1.74249528121795E+018,20444,0,,0,0,0.790813326836,0,0
1.74249528124211E+018,20445,0,,0,0,0.790813326836,0,0
1.74249528127271E+018,20446,0,,0,0,0.790813326836,0,0
1.74249528130026E+018,20447,0,,0,0,0.790813326836,0,0
1.74249528131766E+018,20448,0,,0,0,0.790813326836,0,0
1.74249528134815E+018,20449,0,,0,0,0.790813326836,0,0
1.74249528136773E+018,20450,0,,0,0,0.790813326836,0,0
1.7424952814038E+018,20451,0,,0.0132450656965,0,0.790813326836,0,0
1.74249528141714E+018,20452,0,,0.0302184969187,0,0.790813326836,0,0
1.74249528144231E+018,20453,0,,0.0358763076365,0,0.790813326836,0,0
1.74249528147558E+018,20454,0,,0.0387052111328,0,0.790813326836,0,0
1.74249528149207E+018,20455,0,,0.0443630255759,0,0.790813326836,0,0
1.74249528152393E+018,20456,0,,0.0471919290721,0,0.790813326836,0,0
1.74249528154445E+018,20457,0,,0.0528497360647,0,0.790813326836,0,0
1.7424952815742E+018,20458,0,,0.0528497360647,0,0.790813326836,0,0
1.74249528159795E+018,20459,0,,0.0528497360647,0,0.790813326836,0,0
1.74249528161713E+018,20460,0,,0.0528497360647,0,0.790813326836,0,0
1.74249528164162E+018,20461,0,,0.0528497360647,0,0.790813326836,0,0
1.74249528166974E+018,20462,0,,0.0528497360647,0,0.790813326836,0,0
1.74249528169216E+018,20463,0,,0.0528497360647,0,0.790813326836,0,0
1.7424952817231E+018,20464,0,,0.0556786470115,0,0.790813326836,0,0
1.74249528174322E+018,20465,0,,0.0556786470115,0,0.790813326836,0,0
1.74249528177168E+018,20466,0,,0.0556786470115,0,0.790813326836,0,0
1.74249528179183E+018,20467,0,,0.0556786470115,0,0.790813326836,0,0
1.74249528181815E+018,20468,0,,0.061336454004,0,0.790813326836,0,0
1.74249528184301E+018,20469,0,,0.061336454004,0,0.790813326836,0,0
1.74249528186716E+018,20470,0,,0.061336454004,0,0.790813326836,0,0
1.74249528189657E+018,20471,0,,0.061336454004,0,0.790813326836,0,0
1.74249528191657E+018,20472,0,,0.061336454004,0,0.790813326836,0,0
1.74249528194177E+018,20473,0,,0.0669942647219,0,0.790813326836,0,0
1.74249528197177E+018,20474,0,,0.0754809752107,0,0.790813326836,0,0
1.74249528199215E+018,20475,0,,0.0783098861575,0,0.790813326836,0,0
1.74249528202207E+018,20476,0,,0.106609858572,0,0.790813326836,0,0
1.74249528204182E+018,20477,0,,0.123583294451,0,0.790813326836,0,0
1.74249528207066E+018,20478,0,,0.146214529872,0,0.790813326836,0,0
1.74249528209248E+018,20479,0,,0.163187965751,0,0.790813326836,0,0
1.74249528211938E+018,20480,0,,0.168845772743,0,0.790813326836,0,0
1.74249528215166E+018,20481,0,,0.185819208622,0,0.790813326836,0,0
1.74249528216654E+018,20482,0,,0.205621540546,0,0.790813326836,0,0
1.74249528219988E+018,20483,0,,0.239579334855,0,0.790813326836,0,0
1.74249528222448E+018,20484,0,,0.276355087757,0,0.790813326836,0,0
1.74249528224217E+018,20485,0,,0.29898634553,0,0.790813326836,0,0
1.74249528227117E+018,20486,0,,0.340000003576,0,0.790813326836,0,0
1.74249528229234E+018,20487,0,,0.340000003576,0,0.790813326836,0,0
1.74249528231986E+018,20488,0,,0.340000003576,0,0.790813326836,0,0
1.74249528234912E+018,20489,0,,0.340000003576,0,0.790813326836,0,0
1.74249528236689E+018,20490,0,,0.340000003576,0,0.790813326836,0,0
1.74249528239703E+018,20491,0,,0.340000003576,0,0.790813326836,0,0
1.74249528242767E+018,20492,0,,0.340000003576,0,0.790813326836,0,0
1.74249528244274E+018,20493,0,,0.340000003576,0,0.790813326836,0,0
1.74249528247177E+018,20494,0,,0.340000003576,0,0.790813326836,0,0
1.74249528249153E+018,20495,0,,0.340000003576,0,0.790813326836,0,0
1.74249528252097E+018,20496,0,,0.340000003576,0,0.790813326836,0,0
1.74249528254245E+018,20497,0,,0.340000003576,0,0.790813326836,0,0
1.74249528256684E+018,20498,0,,0.340000003576,0,0.790813326836,0,0
1.74249528259902E+018,20499,0,,0.340000003576,0,0.790813326836,0,0
1.74249528262257E+018,20500,0,,0.340000003576,0,0.790813326836,0,0
1.74249528264266E+018,20501,0,,0.340000003576,0,0.790813326836,0,0
1.74249528266702E+018,20502,0,,0.340000003576,0,0.790813326836,0,0
1.74249528269544E+018,20503,0,,0.340000003576,0,0.790813326836,0,0
1.74249528272326E+018,20504,0,,0.340000003576,0,0.790813326836,0,0
1.7424952827473E+018,20505,0,,0.340000003576,0,0.790813326836,0,0
1.74249528276707E+018,20506,0,,0.340000003576,0,0.790813326836,0,0
1.74249528280044E+018,20507,0,,0.340000003576,0,0.790813326836,0,0
1.7424952828171E+018,20508,0,,0.340000003576,0,0.790813326836,0,0
1.74249528284227E+018,20509,0,,0.340000003576,0,0.790813326836,0,0
1.74249528287154E+018,20510,0,,0.340000003576,0,0.790813326836,0,0
1.742495282897E+018,20511,0,,0.340000003576,0,0.790813326836,0,0
1.74249528291669E+018,20512,0,,0.340000003576,0,0.790813326836,0,0
1.74249528295091E+018,20513,0,,0.340000003576,0,0.790813326836,0,0
1.74249528296844E+018,20514,0,,0.340000003576,0,0.790813326836,0,0
1.74249528299719E+018,20515,0,,0.340000003576,0,0.790813326836,0,0
1.74249528301767E+018,20516,0,,0.340000003576,0,0.790813326836,0,0
1.74249528304417E+018,20517,0,,0.340000003576,0,0.790813326836,0,0
1.74249528307287E+018,20518,0,,0.340000003576,0,0.790813326836,0,0
1.74249528309326E+018,20519,0,,0.340000003576,0,0.790813326836,0,0
1.74249528311917E+018,20520,0,,0.340000003576,0,0.790813326836,0,0
1.74249528314786E+018,20521,0,,0.340000003576,0,0.790813326836,0,0
1.74249528317284E+018,20522,0,,0.340000003576,0,0.790813326836,0,0
1.74249528319205E+018,20523,0,,0.340000003576,0,0.790813326836,0,0
1.74249528322713E+018,20524,0,,0.340000003576,0,0.790813326836,0,0
1.74249528324189E+018,20525,0,,0.340000003576,0,0.790813326836,0,0
1.74249528326894E+018,20526,0,,0.340000003576,0,0.790813326836,0,0
1.74249528329616E+018,20527,0,,0.340000003576,0,0.790813326836,0,0
1.7424952833175E+018,20528,0,,0.340000003576,0,0.790813326836,0,0
1.74249528334713E+018,20529,0,,0.340000003576,0,0.790813326836,0,0
1.74249528336648E+018,20530,0,,0.340000003576,0,0.790813326836,0,0
1.7424952833994E+018,20531,0,,0.340000003576,0,0.790813326836,0,0
1.74249528341771E+018,20532,0,,0.340000003576,0,0.790813326836,0,0
1.74249528345018E+018,20533,0,,0.340000003576,0,0.790813326836,0,0
1.74249528346694E+018,20534,0,,0.340000003576,0,0.790813326836,0,0
1.74249528349726E+018,20535,0,,0.340000003576,0,0.790813326836,0,0
1.74249528352652E+018,20536,0,,0.340000003576,0,0.790813326836,0,0
1.74249528354251E+018,20537,0,,0.340000003576,0,0.790813326836,0,0
1.74249528356726E+018,20538,0,,0.340000003576,0,0.790813326836,0,0
1.7424952835957E+018,20539,0,,0.340000003576,0,0.790813326836,0,0
1.74249528362763E+018,20540,0,,0.340000003576,0,0.790813326836,0,0
1.74249528364405E+018,20541,0,,0.340000003576,0,0.790813326836,0,0
1.74249528367153E+018,20542,0,,0.340000003576,0,0.790813326836,0,0
1.74249528369618E+018,20543,0,,0.340000003576,0,0.790813326836,0,0
1.74249528371775E+018,20544,0,,0.340000003576,0,0.790813326836,0,0
1.74249528374654E+018,20545,0,,0.340000003576,0,0.790813326836,0,0
1.74249528376729E+018,20546,0,,0.340000003576,0,0.790813326836,0,0
1.74249528379818E+018,20547,0,,0.340000003576,0,0.790813326836,0,0
1.74249528381784E+018,20548,0,,0.340000003576,0,0.790813326836,0,0
1.7424952838426E+018,20549,0,,0.340000003576,0,0.790813326836,0,0
1.74249528387176E+018,20550,0,,0.340000003576,0,0.790813326836,0,0
1.74249528389161E+018,20551,0,,0.340000003576,0,0.790813326836,0,0
1.74249528392017E+018,20552,0,,0.340000003576,0,0.790813326836,0,0
1.74249528394186E+018,20553,0,,0.340000003576,0,0.790813326836,0,0
1.74249528397259E+018,20554,0,,0.340000003576,0,0.790813326836,0,0
1.7424952839932E+018,20555,0,,0.340000003576,0,0.790813326836,0,0
1.74249528402616E+018,20556,0,,0.340000003576,0,0.790813326836,0,0
1.74249528404183E+018,20557,0,,0.340000003576,0,0.790813326836,0,0
1.74249528407271E+018,20558,0,,0.340000003576,0,0.790813326836,0,0
1.74249528409626E+018,20559,0,,0.340000003576,0,0.790813326836,0,0
1.74249528411707E+018,20560,0,,0.315959781408,0,0.790813326836,0,0
1.74249528414883E+018,20561,0,,0.248066052794,0,0.865696072578,0,0
1.74249528416689E+018,20562,0,,0.191477015615,0,0.940675199032,0,0
1.74249528419828E+018,20563,0,,0.0217317808419,0,0.990597128868,0,0
1.74249528421816E+018,20564,0,,0,0,0.990597128868,0,0
1.74249528424426E+018,20565,0,,0,0,1.01555800438,0,0
1.74249528427842E+018,20566,0,,0,0,1.01555800438,0,0
1.74249528429623E+018,20567,0,,0,0,1.01555800438,0,0
1.74249528431734E+018,20568,0,,0,0,1.01555800438,0,0
1.74249528434985E+018,20569,0,,0,0,1.01555800438,0,0
1.74249528437398E+018,20570,0,,0,0,1.01555800438,0,0
1.74249528439242E+018,20571,0,,0,0,1.01555800438,0,0
1.74249528442461E+018,20572,0,,0,0,1.01555800438,0,0
1.74249528444218E+018,20573,0,,0,0,1.01555800438,0,0
1.74249528446703E+018,20574,0,,0,0,1.01555800438,0,0
1.74249528450058E+018,20575,0,,0,0,1.01555800438,0,0
1.7424952845257E+018,20576,0,,0,0,1.01555800438,0,0
1.74249528454705E+018,20577,0,,0,0,1.01555800438,0,0
1.74249528456911E+018,20578,0,,0,0,1.01555800438,0,0
1.74249528459719E+018,20579,0,,0,0,1.01555800438,0,0
1.74249528462125E+018,20580,0,,0,0,1.01555800438,0,0
1.74249528464184E+018,20581,0,,0,0,1.01555800438,0,0
1.74249528466749E+018,20582,0,,0,0,1.01555800438,0,0
1.74249528470277E+018,20583,0,,0,0,1.01555800438,0,0
1.74249528471692E+018,20584,0,,0,0,1.01555800438,0,0
1.74249528474957E+018,20585,0,,0,0,1.01555800438,0,0
1.74249528476701E+018,20586,0,,0.0132450656965,0,1.01555800438,0,0
1.74249528479677E+018,20587,0,,0.0471919290721,0,1.01555800438,0,0
1.74249528481829E+018,20588,0,,0.0754809752107,0,1.01555800438,0,0
1.74249528484883E+018,20589,0,,0.115096576512,0,1.01555800438,0,0
1.74249528486672E+018,20590,0,,0.163187965751,0,1.01555800438,0,0
1.74249528489545E+018,20591,0,,0.214108258486,0,1.01555800438,0,0
1.74249528491688E+018,20592,0,,0.245237141848,0,1.01555800438,0,0
1.74249528494902E+018,20593,0,,0.267868369818,0,1.01555800438,0,0
1.74249528496679E+018,20594,0,,0.310301959515,0,1.01555800438,0,0
1.74249528499783E+018,20595,0,,0.332933187485,0,1.01555800438,0,0
1.74249528501735E+018,20596,0,,0.340000003576,0,1.01555800438,0,0
1.74249528505225E+018,20597,0,,0.340000003576,0,1.01555800438,0,0
1.74249528506678E+018,20598,0,,0.340000003576,0,1.01555800438,0,0
1.74249528509799E+018,20599,0,,0.340000003576,0,1.01555800438,0,0
1.74249528511689E+018,20600,0,,0.340000003576,0,1.01555800438,0,0
1.74249528514649E+018,20601,0,,0.340000003576,0,1.01555800438,0,0
1.74249528517006E+018,20602,0,,0.340000003576,0,1.01555800438,0,0
1.74249528520101E+018,20603,0,,0.340000003576,0,1.01555800438,0,0
1.74249528521719E+018,20604,0,,0.340000003576,0,1.01555800438,0,0
1.74249528524181E+018,20605,0,,0.340000003576,0,1.01555800438,0,0
1.74249528527018E+018,20606,0,,0.340000003576,0,1.01555800438,0,0
1.7424952852972E+018,20607,0,,0.340000003576,0,1.01555800438,0,0
1.74249528531695E+018,20608,0,,0.340000003576,0,1.01555800438,0,0
1.74249528534777E+018,20609,0,,0.340000003576,0,1.01555800438,0,0
1.74249528537318E+018,20610,0,,0.340000003576,0,1.01555800438,0,0
1.74249528539591E+018,20611,0,,0.340000003576,0,1.01555800438,0,0
1.74249528543051E+018,20612,0,,0.340000003576,0,1.01555800438,0,0
1.74249528544216E+018,20613,0,,0.340000003576,0,1.01555800438,0,0
1.74249528547359E+018,20614,0,,0.340000003576,0,1.01555800438,0,0
1.74249528549178E+018,20615,0,,0.340000003576,0,1.01555800438,0,0
1.74249528551699E+018,20616,0,,0.340000003576,0,1.01555800438,0,0
1.74249528554751E+018,20617,0,,0.340000003576,0,1.01555800438,0,0
1.74249528556711E+018,20618,0,,0.340000003576,0,1.01555800438,0,0
1.7424952855924E+018,20619,0,,0.293328523636,0,1.01555800438,0,0
1.74249528561764E+018,20620,0,,0.168845772743,0,1.01555800438,0,0
1.74249528564392E+018,20621,0,,0.0754809752107,0,1.01555800438,0,0
1.74249528566812E+018,20622,0,,0.0387052111328,0,1.01555800438,0,0
1.74249528570118E+018,20623,0,,0.0387052111328,0,1.01555800438,0,0
1.74249528571736E+018,20624,0,,0.0387052111328,0,1.01555800438,0,0
1.74249528574952E+018,20625,0,,0.0387052111328,0,1.01555800438,0,0
1.7424952857675E+018,20626,0,,0.0387052111328,0,1.01555800438,0,0
1.74249528579844E+018,20627,0,,0.0387052111328,0,1.01555800438,0,0
1.74249528581722E+018,20628,0,,0.0387052111328,0,1.01555800438,0,0
1.74249528584233E+018,20629,0,,0,0,1.01555800438,0,0
1.74249528587036E+018,20630,0,,0,0,1.01555800438,0,0
1.74249528590143E+018,20631,0,,0.0160739701241,0,1.01555800438,0,0
1.74249528591723E+018,20632,0,,0.0754809752107,0,1.01555800438,0,0
1.74249528594499E+018,20633,0,,0.13207000494,0,1.01555800438,0,0
1.74249528596752E+018,20634,0,,0.199963733554,0,1.01555800438,0,0
1.74249528599898E+018,20635,0,,0.253723859787,0,1.01555800438,0,0
1.74249528601798E+018,20636,0,,0.340000003576,0,1.01555800438,0,0
1.7424952860496E+018,20637,0,,0.340000003576,0,1.01555800438,0,0
1.74249528606695E+018,20638,0,,0.340000003576,0,1.01555800438,0,0
1.74249528610174E+018,20639,0,,0.340000003576,0,1.01555800438,0,0
1.74249528611784E+018,20640,0,,0.340000003576,0,1.01555800438,0,0
1.74249528614389E+018,20641,0,,0.340000003576,0,1.01555800438,0,0
1.74249528617309E+018,20642,0,,0.340000003576,0,1.01555800438,0,0
1.74249528619191E+018,20643,0,,0.340000003576,0,1.01555800438,0,0
1.74249528621838E+018,20644,0,,0.340000003576,0,1.01555800438,0,0
1.74249528624815E+018,20645,0,,0.340000003576,0,1.01555800438,0,0
1.74249528626704E+018,20646,0,,0.340000003576,0,1.01555800438,0,0
1.74249528629737E+018,20647,0,,0.340000003576,0,1.01555800438,0,0
1.74249528631784E+018,20648,0,,0.340000003576,0,1.01555800438,0,0
1.74249528634526E+018,20649,0,,0.340000003576,0,1.01555800438,0,0
1.7424952863737E+018,20650,0,,0.340000003576,0,1.01555800438,0,0
1.74249528639251E+018,20651,0,,0.340000003576,0,1.01555800438,0,0
1.7424952864194E+018,20652,0,,0.340000003576,0,1.01555800438,0,0
1.74249528644343E+018,20653,0,,0.340000003576,0,1.01555800438,0,0
1.74249528646692E+018,20654,0,,0.340000003576,0,1.01555800438,0,0
1.74249528649595E+018,20655,0,,0.340000003576,0,1.01555800438,0,0
1.74249528652353E+018,20656,0,,0.340000003576,0,1.01555800438,0,0
1.74249528654216E+018,20657,0,,0.340000003576,0,1.01555800438,0,0
1.74249528656817E+018,20658,0,,0.340000003576,0,1.01555800438,0,0
1.74249528659236E+018,20659,0,,0.340000003576,0,1.01555800438,0,0
1.74249528662532E+018,20660,0,,0.340000003576,0,1.01555800438,0,0
1.74249528664237E+018,20661,0,,0.340000003576,0,1.01555800438,0,0
1.74249528666681E+018,20662,0,,0.340000003576,0,1.01555800438,0,0
1.74249528669377E+018,20663,0,,0.340000003576,0,1.01555800438,0,0
1.74249528672282E+018,20664,0,,0.340000003576,0,1.01555800438,0,0
1.74249528674191E+018,20665,0,,0.340000003576,0,1.01555800438,0,0
1.74249528677289E+018,20666,0,,0.340000003576,0,1.01555800438,0,0
1.74249528679205E+018,20667,0,,0.340000003576,0,1.01555800438,0,0
1.74249528682829E+018,20668,0,,0.340000003576,0,1.01555800438,0,0
1.74249528684316E+018,20669,0,,0.340000003576,0,1.01555800438,0,0
1.74249528687458E+018,20670,0,,0.340000003576,0,1.01555800438,0,0
1.74249528689551E+018,20671,0,,0.340000003576,0,1.01555800438,0,0
1.7424952869173E+018,20672,0,,0.340000003576,0,1.01555800438,0,0
1.74249528695152E+018,20673,0,,0.340000003576,0,1.01555800438,0,0
1.74249528696621E+018,20674,0,,0.340000003576,0,1.01555800438,0,0
1.74249528699925E+018,20675,0,,0.340000003576,0,1.01555800438,0,0
1.74249528702283E+018,20676,0,,0.340000003576,0,1.01555800438,0,0
1.74249528704198E+018,20677,0,,0.340000003576,0,1.01555800438,0,0
1.74249528707148E+018,20678,0,,0.340000003576,0,1.01555800438,0,0
1.74249528709751E+018,20679,0,,0.340000003576,0,1.01555800438,0,0
1.74249528711787E+018,20680,0,,0.267868369818,0,1.01555800438,0,0
1.74249528714598E+018,20681,0,,0.140556722879,0,1.06547987461,0,0
1.74249528717473E+018,20682,0,,0,0,1.11540174484,0,0
1.74249528719682E+018,20683,0,,0,0,1.14036262035,0,0
1.74249528721672E+018,20684,0,,0,0,1.19028449059,0,0
1.74249528724628E+018,20685,0,,0,0,1.19028449059,0,0
1.74249528726695E+018,20686,0,,0,0,1.19028449059,0,0
1.74249528729333E+018,20687,0,,0,0,1.19028449059,0,0
1.74249528732214E+018,20688,0,,0,0,1.19028449059,0,0
1.74249528734357E+018,20689,0,,0,0,1.19028449059,0,0
1.74249528737479E+018,20690,0,,0,0,1.19028449059,0,0
1.74249528739212E+018,20691,0,,0,0,1.19028449059,0,0
1.74249528742377E+018,20692,0,,0,0,1.19028449059,0,0
1.74249528744211E+018,20693,0,,0.0783098861575,0,1.19028449059,0,0
1.7424952874722E+018,20694,0,,0.194305926561,0,1.19028449059,0,0
1.74249528749191E+018,20695,0,,0.301815241575,0,1.19028449059,0,0
1.7424952875184E+018,20696,0,,0.3216175735,0,1.19028449059,0,0
1.74249528754944E+018,20697,0,,0.3216175735,0,1.19028449059,0,0
1.74249528756751E+018,20698,0,,0.3216175735,0,1.19028449059,0,0
1.74249528759284E+018,20699,0,,0.324446499348,0,1.19028449059,0,0
1.74249528762394E+018,20700,0,,0.324446499348,0,1.19028449059,0,0
1.74249528764473E+018,20701,0,,0.324446499348,0,1.19028449059,0,0
1.74249528766915E+018,20702,0,,0.324446499348,0,1.19028449059,0,0
1.74249528769719E+018,20703,0,,0.330104291439,0,1.19028449059,0,0
1.74249528772335E+018,20704,0,,0.330104291439,0,1.19028449059,0,0
1.74249528774203E+018,20705,0,,0.330104291439,0,1.19028449059,0,0
1.74249528777031E+018,20706,0,,0.330104291439,0,1.19028449059,0,0
1.74249528779654E+018,20707,0,,0.330104291439,0,1.19028449059,0,0
1.74249528781737E+018,20708,0,,0.330104291439,0,1.19028449059,0,0
1.7424952878513E+018,20709,0,,0.330104291439,0,1.19028449059,0,0
1.74249528786691E+018,20710,0,,0.330104291439,0,1.19028449059,0,0
1.7424952878998E+018,20711,0,,0.208450451493,0,1.19028449059,0,0
1.74249528791745E+018,20712,0,,0,0,1.19028449059,0,0
1.74249528794309E+018,20713,0,,0,0,1.19028449059,0,0
1.74249528797133E+018,20714,0,,0,0,1.19028449059,0,0
1.74249528799277E+018,20715,0,,0,0,1.19028449059,0,0
1.74249528802035E+018,20716,0,,0,0,1.19028449059,0,0
1.74249528804266E+018,20717,0,,0,0,1.19028449059,0,0
1.74249528806648E+018,20718,0,,0,0,1.19028449059,0,0
1.7424952880983E+018,20719,0,,0,0,1.19028449059,0,0
1.74249528811951E+018,20720,0,,0,0,1.19028449059,0,0
1.74249528814275E+018,20721,0,,0,0,1.21524548531,0,0
1.74249528817093E+018,20722,0,,0,0,1.21524548531,0,0
