%time,field.header.seq,field.header.stamp,field.header.frame_id,field.drive.steering_angle,field.drive.steering_angle_velocity,field.drive.speed,field.drive.acceleration,field.drive.jerk
1.743628168264E+018,1371,0,,0,0,0,0,0
1.74362816828993E+018,1372,0,,0,0,0,0,0
1.74362816831775E+018,1373,0,,0,0,0,0,0
1.74362816834127E+018,1374,0,,0,0,0.041985437274,0,0
1.74362816836834E+018,1375,0,,0,0,0.041985437274,0,0
1.74362816839035E+018,1376,0,,0,0,0.041985437274,0,0
1.74362816841929E+018,1377,0,,0,0,0.041985437274,0,0
1.74362816844458E+018,1378,0,,0,0,0.041985437274,0,0
1.74362816846632E+018,1379,0,,0,0,0.0669463649392,0,0
1.74362816849586E+018,1380,0,,0,0,0.141829162836,0,0
1.74362816851518E+018,1381,0,,0,0,0.141829162836,0,0
1.74362816853938E+018,1382,0,,0,0,0.341516584158,0,0
1.74362816856384E+018,1383,0,,0,0,0.516243100166,0,0
1.74362816859517E+018,1384,0,,0,0,0.76585239172,0,0
1.74362816862115E+018,1385,0,,0,0,0.790813326836,0,0
1.74362816863861E+018,1386,0,,0,0,0.790813326836,0,0
1.74362816866802E+018,1387,0,,0,0,0.790813326836,0,0
1.74362816869122E+018,1388,0,,0,0,0.790813326836,0,0
1.74362816871704E+018,1389,0,,0,0,0.790813326836,0,0
1.74362816873877E+018,1390,0,,0,0,0.790813326836,0,0
1.74362816876468E+018,1391,0,,0,0,0.790813326836,0,0
1.74362816878979E+018,1392,0,,0,0,0.840735077858,0,0
1.74362816881432E+018,1393,0,,-0.041512273252,0,0.840735077858,0,0
1.74362816883878E+018,1394,0,,-0.112245827913,0,0.840735077858,0,0
1.74362816886377E+018,1395,0,,-0.163166120648,0,0.840735077858,0,0
1.74362816888908E+018,1396,0,,-0.225412964821,0,0.840735077858,0,0
1.74362816891666E+018,1397,0,,-0.273504346609,0,0.840735077858,0,0
1.74362816894214E+018,1398,0,,-0.290477782488,0,0.840735077858,0,0
1.7436281689646E+018,1399,0,,-0.290477782488,0,0.840735077858,0,0
1.74362816898859E+018,1400,0,,-0.290477782488,0,0.840735077858,0,0
1.74362816901381E+018,1401,0,,-0.126390352845,0,0.840735077858,0,0
1.74362816904059E+018,1402,0,,0,0,0.840735077858,0,0
1.74362816906417E+018,1403,0,,0,0,0.840735077858,0,0
1.74362816908904E+018,1404,0,,0,0,0.840735077858,0,0
1.74362816912079E+018,1405,0,,0,0,0.840735077858,0,0
1.74362816913888E+018,1406,0,,0,0,0.840735077858,0,0
1.74362816916445E+018,1407,0,,0,0,0.840735077858,0,0
1.743628169191E+018,1408,0,,0,0,0.840735077858,0,0
1.74362816921329E+018,1409,0,,0,0,0.840735077858,0,0
1.74362816924411E+018,1410,0,,0,0,0.840735077858,0,0
1.74362816926391E+018,1411,0,,0,0,0.840735077858,0,0
1.74362816928934E+018,1412,0,,0,0,0.840735077858,0,0
1.74362816931929E+018,1413,0,,0,0,0.840735077858,0,0
1.74362816934361E+018,1414,0,,0,0,0.840735077858,0,0
1.74362816936993E+018,1415,0,,0,0,0.840735077858,0,0
1.7436281693927E+018,1416,0,,0,0,0.840735077858,0,0
1.7436281694159E+018,1417,0,,0,0,0.840735077858,0,0
1.7436281694395E+018,1418,0,,0,0,0.840735077858,0,0
1.74362816946727E+018,1419,0,,0,0,0.840735077858,0,0
1.74362816948956E+018,1420,0,,0,0,0.840735077858,0,0
1.74362816951414E+018,1421,0,,0,0,0.840735077858,0,0
1.74362816954395E+018,1422,0,,0,0,0.965636193752,0,0
1.74362816956639E+018,1423,0,,0,0,0.965636193752,0,0
1.74362816959002E+018,1424,0,,0,0,0.965636193752,0,0
1.74362816961395E+018,1425,0,,0,0,0.965636193752,0,0
1.74362816964202E+018,1426,0,,0,0,0.965636193752,0,0
1.74362816966352E+018,1427,0,,0,0,0.965636193752,0,0
1.74362816969082E+018,1428,0,,0.0471919290721,0,0.965636193752,0,0
1.74362816971595E+018,1429,0,,0.140556722879,0,0.965636193752,0,0
1.74362816974049E+018,1430,0,,0.248066052794,0,0.965636193752,0,0
1.74362816976391E+018,1431,0,,0.340000003576,0,0.965636193752,0,0
1.74362816979059E+018,1432,0,,0.340000003576,0,0.865696072578,0,0
1.743628169817E+018,1433,0,,0.340000003576,0,0.865696072578,0,0
1.74362816984244E+018,1434,0,,0.340000003576,0,0.865696072578,0,0
1.74362816986347E+018,1435,0,,0.340000003576,0,0.865696072578,0,0
1.74362816989083E+018,1436,0,,0.340000003576,0,0.865696072578,0,0
1.74362816991955E+018,1437,0,,0.340000003576,0,0.865696072578,0,0
1.74362816994053E+018,1438,0,,0.340000003576,0,0.865696072578,0,0
1.74362816996899E+018,1439,0,,0.340000003576,0,0.865696072578,0,0
1.74362816999485E+018,1440,0,,0.340000003576,0,0.865696072578,0,0
1.74362817002087E+018,1441,0,,0.340000003576,0,0.840735077858,0,0
1.74362817003873E+018,1442,0,,0.340000003576,0,0.840735077858,0,0
1.74362817006572E+018,1443,0,,0.340000003576,0,0.840735077858,0,0
1.74362817009134E+018,1444,0,,0.340000003576,0,0.840735077858,0,0
1.74362817012031E+018,1445,0,,0.340000003576,0,0.840735077858,0,0
1.74362817014156E+018,1446,0,,0.340000003576,0,0.840735077858,0,0
1.74362817016708E+018,1447,0,,0.340000003576,0,0.840735077858,0,0
1.74362817019298E+018,1448,0,,0.340000003576,0,0.840735077858,0,0
1.74362817021697E+018,1449,0,,0.340000003576,0,0.840735077858,0,0
1.7436281702415E+018,1450,0,,0.340000003576,0,0.840735077858,0,0
1.74362817026347E+018,1451,0,,0.340000003576,0,0.840735077858,0,0
1.74362817029117E+018,1452,0,,0.340000003576,0,0.840735077858,0,0
1.74362817031989E+018,1453,0,,0.340000003576,0,0.840735077858,0,0
1.74362817033893E+018,1454,0,,0.340000003576,0,0.840735077858,0,0
1.74362817036705E+018,1455,0,,0.340000003576,0,0.840735077858,0,0
1.74362817038984E+018,1456,0,,0.340000003576,0,0.840735077858,0,0
1.74362817041834E+018,1457,0,,0.340000003576,0,0.840735077858,0,0
1.74362817044175E+018,1458,0,,0.340000003576,0,0.840735077858,0,0
1.74362817047214E+018,1459,0,,0.340000003576,0,0.840735077858,0,0
1.74362817049025E+018,1460,0,,0.340000003576,0,0.840735077858,0,0
1.7436281705215E+018,1461,0,,0.340000003576,0,0.840735077858,0,0
1.74362817053884E+018,1462,0,,0.340000003576,0,0.840735077858,0,0
1.74362817056372E+018,1463,0,,0.340000003576,0,0.840735077858,0,0
1.74362817058997E+018,1464,0,,0.340000003576,0,0.840735077858,0,0
1.74362817062001E+018,1465,0,,0.340000003576,0,0.840735077858,0,0
1.74362817064144E+018,1466,0,,0.340000003576,0,0.840735077858,0,0
1.74362817066487E+018,1467,0,,0.340000003576,0,0.840735077858,0,0
1.74362817069101E+018,1468,0,,0.340000003576,0,0.840735077858,0,0
1.74362817071901E+018,1469,0,,0.340000003576,0,0.840735077858,0,0
1.74362817074018E+018,1470,0,,0.340000003576,0,0.840735077858,0,0
1.74362817076734E+018,1471,0,,0.340000003576,0,0.840735077858,0,0
1.74362817078898E+018,1472,0,,0.340000003576,0,0.840735077858,0,0
1.74362817081371E+018,1473,0,,0.340000003576,0,0.840735077858,0,0
1.74362817083842E+018,1474,0,,0.340000003576,0,0.840735077858,0,0
1.74362817086478E+018,1475,0,,0.279183983803,0,0.965636193752,0,0
1.74362817088914E+018,1476,0,,0.160359054804,0,0.990597128868,0,0
1.74362817091379E+018,1477,0,,0.0160739701241,0,0.990597128868,0,0
1.74362817093876E+018,1478,0,,0,0,0.990597128868,0,0
1.74362817096389E+018,1479,0,,0,0,0.990597128868,0,0
1.74362817098876E+018,1480,0,,0,0,0.990597128868,0,0
1.74362817101374E+018,1481,0,,0,0,0.990597128868,0,0
1.7436281710395E+018,1482,0,,0,0,0.990597128868,0,0
1.74362817106369E+018,1483,0,,0,0,0.990597128868,0,0
1.74362817108872E+018,1484,0,,0,0,0.990597128868,0,0
1.74362817111367E+018,1485,0,,0,0,0.990597128868,0,0
1.74362817113915E+018,1486,0,,0,0,0.990597128868,0,0
1.74362817116394E+018,1487,0,,0,0,0.990597128868,0,0
1.74362817118895E+018,1488,0,,0,0,0.990597128868,0,0
1.74362817121368E+018,1489,0,,0,0,0.990597128868,0,0
1.74362817123882E+018,1490,0,,0,0,0.990597128868,0,0
1.74362817126367E+018,1491,0,,0,0,0.990597128868,0,0
1.7436281712934E+018,1492,0,,0,0,0.990597128868,0,0
1.74362817131621E+018,1493,0,,0,0,0.990597128868,0,0
1.74362817134216E+018,1494,0,,0,0,0.990597128868,0,0
1.74362817137013E+018,1495,0,,0,0,0.990597128868,0,0
1.74362817139477E+018,1496,0,,0,0,0.990597128868,0,0
1.74362817142311E+018,1497,0,,0,0,0.990597128868,0,0
1.74362817144263E+018,1498,0,,0,0,0.990597128868,0,0
1.74362817146396E+018,1499,0,,0,0,0.990597128868,0,0
1.74362817149026E+018,1500,0,,0,0,0.990597128868,0,0
1.74362817151396E+018,1501,0,,0,0,0.990597128868,0,0
1.74362817154403E+018,1502,0,,0,0,0.990597128868,0,0
1.74362817156444E+018,1503,0,,0,0,0.990597128868,0,0
1.74362817159408E+018,1504,0,,0,0,0.990597128868,0,0
1.7436281716167E+018,1505,0,,0,0,0.990597128868,0,0
1.74362817164489E+018,1506,0,,-0.0669724196196,0,0.990597128868,0,0
1.7436281716674E+018,1507,0,,-0.211257502437,0,0.990597128868,0,0
1.7436281716887E+018,1508,0,,-0.318766832352,0,0.990597128868,0,0
1.74362817171388E+018,1509,0,,-0.318766832352,0,0.990597128868,0,0
1.74362817174378E+018,1510,0,,-0.318766832352,0,0.990597128868,0,0
1.74362817176826E+018,1511,0,,-0.318766832352,0,0.990597128868,0,0
1.74362817179271E+018,1512,0,,-0.318766832352,0,0.990597128868,0,0
1.74362817182333E+018,1513,0,,-0.318766832352,0,0.990597128868,0,0
1.74362817183979E+018,1514,0,,-0.318766832352,0,0.990597128868,0,0
1.74362817186438E+018,1515,0,,-0.318766832352,0,0.990597128868,0,0
1.74362817188889E+018,1516,0,,-0.318766832352,0,0.990597128868,0,0
1.7436281719153E+018,1517,0,,-0.318766832352,0,0.990597128868,0,0
1.74362817193905E+018,1518,0,,-0.318766832352,0,0.990597128868,0,0
1.74362817196649E+018,1519,0,,-0.318766832352,0,0.990597128868,0,0
1.74362817198857E+018,1520,0,,-0.318766832352,0,0.990597128868,0,0
1.74362817201796E+018,1521,0,,-0.318766832352,0,0.990597128868,0,0
1.74362817204262E+018,1522,0,,-0.318766832352,0,0.990597128868,0,0
1.74362817207064E+018,1523,0,,-0.318766832352,0,0.990597128868,0,0
1.74362817209027E+018,1524,0,,-0.318766832352,0,0.990597128868,0,0
1.74362817211905E+018,1525,0,,-0.318766832352,0,0.990597128868,0,0
1.74362817213955E+018,1526,0,,-0.318766832352,0,0.990597128868,0,0
1.74362817216359E+018,1527,0,,-0.318766832352,0,0.990597128868,0,0
1.7436281721918E+018,1528,0,,-0.318766832352,0,0.990597128868,0,0
1.74362817221476E+018,1529,0,,-0.318766832352,0,0.990597128868,0,0
1.74362817224722E+018,1530,0,,-0.318766832352,0,0.990597128868,0,0
1.74362817226759E+018,1531,0,,-0.318766832352,0,0.990597128868,0,0
1.74362817229089E+018,1532,0,,-0.318766832352,0,0.990597128868,0,0
1.7436281723133E+018,1533,0,,-0.318766832352,0,0.990597128868,0,0
1.74362817233843E+018,1534,0,,-0.318766832352,0,0.990597128868,0,0
1.74362817236363E+018,1535,0,,-0.318766832352,0,0.990597128868,0,0
1.74362817238919E+018,1536,0,,-0.318766832352,0,0.990597128868,0,0
1.74362817241924E+018,1537,0,,-0.318766832352,0,0.990597128868,0,0
1.74362817244211E+018,1538,0,,-0.318766832352,0,0.990597128868,0,0
1.74362817246401E+018,1539,0,,-0.318766832352,0,0.990597128868,0,0
1.74362817249168E+018,1540,0,,-0.318766832352,0,0.990597128868,0,0
1.74362817251627E+018,1541,0,,-0.318766832352,0,0.990597128868,0,0
1.7436281725445E+018,1542,0,,-0.318766832352,0,0.990597128868,0,0
1.74362817256975E+018,1543,0,,-0.318766832352,0,1.04051887989,0,0
1.74362817258942E+018,1544,0,,-0.318766832352,0,1.04051887989,0,0
1.74362817261382E+018,1545,0,,-0.318766832352,0,1.04051887989,0,0
1.74362817264392E+018,1546,0,,-0.318766832352,0,1.04051887989,0,0
1.74362817266612E+018,1547,0,,-0.318766832352,0,1.04051887989,0,0
1.74362817269403E+018,1548,0,,-0.318766832352,0,1.04051887989,0,0
1.74362817271608E+018,1549,0,,-0.318766832352,0,1.04051887989,0,0
1.74362817274184E+018,1550,0,,-0.318766832352,0,1.04051887989,0,0
1.7436281727641E+018,1551,0,,-0.318766832352,0,1.04051887989,0,0
1.74362817278944E+018,1552,0,,-0.318766832352,0,1.04051887989,0,0
1.74362817281623E+018,1553,0,,-0.318766832352,0,1.04051887989,0,0
1.74362817284612E+018,1554,0,,-0.318766832352,0,1.04051887989,0,0
1.74362817287075E+018,1555,0,,-0.318766832352,0,1.04051887989,0,0
1.74362817288944E+018,1556,0,,-0.318766832352,0,1.04051887989,0,0
1.74362817291967E+018,1557,0,,-0.318766832352,0,1.04051887989,0,0
1.74362817294306E+018,1558,0,,-0.318766832352,0,1.04051887989,0,0
1.74362817296947E+018,1559,0,,-0.304622292519,0,1.04051887989,0,0
1.74362817299634E+018,1560,0,,-0.126390352845,0,1.04051887989,0,0
1.74362817301378E+018,1561,0,,0,0,1.04051887989,0,0
1.74362817304215E+018,1562,0,,0,0,1.19028449059,0,0
1.74362817306578E+018,1563,0,,0,0,1.26516735554,0,0
1.74362817309109E+018,1564,0,,0,0,1.26516735554,0,0
1.74362817311947E+018,1565,0,,0,0,1.36501097679,0,0
1.74362817314193E+018,1566,0,,0,0,1.36501097679,0,0
1.74362817316915E+018,1567,0,,0,0,1.36501097679,0,0
1.74362817318928E+018,1568,0,,0,0,1.36501097679,0,0
1.74362817321736E+018,1569,0,,0,0,1.36501097679,0,0
1.74362817324442E+018,1570,0,,0,0,1.36501097679,0,0
1.74362817326751E+018,1571,0,,0,0,1.36501097679,0,0
1.74362817328874E+018,1572,0,,0,0,1.36501097679,0,0
1.7436281733138E+018,1573,0,,0,0,1.36501097679,0,0
1.74362817334089E+018,1574,0,,0.0443630255759,0,1.36501097679,0,0
1.74362817336774E+018,1575,0,,0.151872336864,0,1.36501097679,0,0
1.74362817339364E+018,1576,0,,0.253723859787,0,1.36501097679,0,0
1.74362817341518E+018,1577,0,,0.340000003576,0,1.36501097679,0,0
1.74362817344393E+018,1578,0,,0.340000003576,0,1.36501097679,0,0
1.7436281734649E+018,1579,0,,0.340000003576,0,1.36501097679,0,0
1.74362817348994E+018,1580,0,,0.340000003576,0,1.36501097679,0,0
1.74362817352093E+018,1581,0,,0.340000003576,0,1.36501097679,0,0
1.74362817354285E+018,1582,0,,0.340000003576,0,1.26516735554,0,0
1.74362817356647E+018,1583,0,,0.340000003576,0,1.26516735554,0,0
1.74362817358961E+018,1584,0,,0.340000003576,0,1.26516735554,0,0
1.74362817361862E+018,1585,0,,0.324446499348,0,1.26516735554,0,0
1.74362817364742E+018,1586,0,,0.262210577726,0,1.26516735554,0,0
1.74362817366765E+018,1587,0,,0,0,1.24020636082,0,0
1.74362817369472E+018,1588,0,,0,0,1.24020636082,0,0
1.74362817372068E+018,1589,0,,0,0,1.24020636082,0,0
1.74362817374171E+018,1590,0,,0,0,1.24020636082,0,0
1.74362817376637E+018,1591,0,,0,0,1.24020636082,0,0
1.74362817379443E+018,1592,0,,0,0,1.24020636082,0,0
1.74362817381388E+018,1593,0,,0,0,1.24020636082,0,0
1.74362817384499E+018,1594,0,,0,0,1.24020636082,0,0
1.74362817386481E+018,1595,0,,0,0,1.24020636082,0,0
1.74362817388992E+018,1596,0,,0,0,1.24020636082,0,0
1.74362817391761E+018,1597,0,,0,0,1.24020636082,0,0
1.74362817393962E+018,1598,0,,0,0,1.24020636082,0,0
1.74362817396989E+018,1599,0,,0,0,1.24020636082,0,0
1.74362817399347E+018,1600,0,,0,0,1.24020636082,0,0
1.7436281740211E+018,1601,0,,0,0,1.24020636082,0,0
1.74362817404513E+018,1602,0,,0,0,1.24020636082,0,0
1.74362817406427E+018,1603,0,,0,0,1.24020636082,0,0
1.74362817409136E+018,1604,0,,-0.0471700802445,0,1.24020636082,0,0
1.74362817411915E+018,1605,0,,-0.13770596683,0,1.19028449059,0,0
1.74362817414254E+018,1606,0,,-0.26501762867,0,1.19028449059,0,0
1.74362817416424E+018,1607,0,,-0.330082446337,0,1.19028449059,0,0
1.74362817418913E+018,1608,0,,-0.330082446337,0,1.19028449059,0,0
1.74362817421731E+018,1609,0,,-0.330082446337,0,1.19028449059,0,0
1.74362817423965E+018,1610,0,,-0.330082446337,0,1.19028449059,0,0
1.74362817426425E+018,1611,0,,-0.330082446337,0,1.16532361507,0,0
1.7436281742891E+018,1612,0,,-0.330082446337,0,1.16532361507,0,0
1.74362817431595E+018,1613,0,,-0.330082446337,0,1.16532361507,0,0
1.74362817433988E+018,1614,0,,-0.330082446337,0,1.16532361507,0,0
1.74362817437232E+018,1615,0,,-0.330082446337,0,1.16532361507,0,0
1.74362817439241E+018,1616,0,,-0.330082446337,0,1.16532361507,0,0
1.74362817441839E+018,1617,0,,-0.330082446337,0,1.16532361507,0,0
1.74362817443852E+018,1618,0,,-0.330082446337,0,1.16532361507,0,0
1.74362817446452E+018,1619,0,,-0.330082446337,0,1.16532361507,0,0
1.7436281744897E+018,1620,0,,-0.330082446337,0,1.16532361507,0,0
1.74362817451398E+018,1621,0,,-0.330082446337,0,1.16532361507,0,0
1.74362817454172E+018,1622,0,,-0.330082446337,0,1.16532361507,0,0
1.74362817456764E+018,1623,0,,-0.330082446337,0,1.16532361507,0,0
1.74362817459711E+018,1624,0,,-0.330082446337,0,1.16532361507,0,0
1.74362817461455E+018,1625,0,,-0.330082446337,0,1.16532361507,0,0
1.74362817463947E+018,1626,0,,-0.330082446337,0,1.16532361507,0,0
1.74362817466884E+018,1627,0,,-0.330082446337,0,1.16532361507,0,0
1.74362817469388E+018,1628,0,,-0.330082446337,0,1.16532361507,0,0
1.74362817471867E+018,1629,0,,-0.330082446337,0,1.16532361507,0,0
1.74362817474608E+018,1630,0,,-0.330082446337,0,1.16532361507,0,0
1.74362817477031E+018,1631,0,,-0.330082446337,0,1.16532361507,0,0
1.74362817479336E+018,1632,0,,-0.330082446337,0,1.16532361507,0,0
1.74362817481744E+018,1633,0,,-0.330082446337,0,1.16532361507,0,0
1.74362817484725E+018,1634,0,,-0.330082446337,0,1.16532361507,0,0
1.74362817486815E+018,1635,0,,-0.330082446337,0,1.16532361507,0,0
1.74362817488925E+018,1636,0,,-0.330082446337,0,1.16532361507,0,0
1.74362817491351E+018,1637,0,,-0.330082446337,0,1.16532361507,0,0
1.74362817493938E+018,1638,0,,-0.330082446337,0,1.16532361507,0,0
1.74362817496918E+018,1639,0,,-0.330082446337,0,1.16532361507,0,0
1.74362817499121E+018,1640,0,,-0.330082446337,0,1.16532361507,0,0
1.74362817502122E+018,1641,0,,-0.330082446337,0,1.16532361507,0,0
1.74362817504365E+018,1642,0,,-0.330082446337,0,1.16532361507,0,0
1.74362817507229E+018,1643,0,,-0.330082446337,0,1.16532361507,0,0
1.74362817509085E+018,1644,0,,-0.330082446337,0,1.16532361507,0,0
1.74362817511578E+018,1645,0,,-0.330082446337,0,1.16532361507,0,0
1.74362817514323E+018,1646,0,,-0.330082446337,0,1.16532361507,0,0
1.74362817516613E+018,1647,0,,-0.330082446337,0,1.16532361507,0,0
1.74362817519187E+018,1648,0,,-0.330082446337,0,1.16532361507,0,0
1.74362817521599E+018,1649,0,,-0.330082446337,0,1.16532361507,0,0
1.74362817524495E+018,1650,0,,-0.330082446337,0,1.16532361507,0,0
1.74362817526924E+018,1651,0,,-0.330082446337,0,1.16532361507,0,0
1.74362817529104E+018,1652,0,,-0.330082446337,0,1.16532361507,0,0
1.74362817531862E+018,1653,0,,-0.330082446337,0,1.16532361507,0,0
1.74362817534162E+018,1654,0,,-0.330082446337,0,1.16532361507,0,0
1.74362817536349E+018,1655,0,,-0.330082446337,0,1.16532361507,0,0
1.74362817538864E+018,1656,0,,-0.330082446337,0,1.16532361507,0,0
1.74362817541531E+018,1657,0,,-0.330082446337,0,1.16532361507,0,0
1.74362817544523E+018,1658,0,,-0.330082446337,0,1.16532361507,0,0
1.74362817546727E+018,1659,0,,-0.330082446337,0,1.16532361507,0,0
1.74362817549084E+018,1660,0,,-0.330082446337,0,1.16532361507,0,0
1.74362817551966E+018,1661,0,,-0.330082446337,0,1.16532361507,0,0
1.7436281755429E+018,1662,0,,-0.330082446337,0,1.16532361507,0,0
1.74362817556494E+018,1663,0,,-0.330082446337,0,1.16532361507,0,0
1.74362817558927E+018,1664,0,,-0.330082446337,0,1.16532361507,0,0
1.74362817561403E+018,1665,0,,-0.330082446337,0,1.16532361507,0,0
1.7436281756392E+018,1666,0,,-0.330082446337,0,1.16532361507,0,0
1.74362817566422E+018,1667,0,,-0.330082446337,0,1.16532361507,0,0
1.74362817568853E+018,1668,0,,-0.330082446337,0,1.16532361507,0,0
1.74362817571445E+018,1669,0,,-0.330082446337,0,1.16532361507,0,0
1.7436281757455E+018,1670,0,,-0.330082446337,0,1.16532361507,0,0
1.7436281757656E+018,1671,0,,-0.330082446337,0,1.16532361507,0,0
1.74362817578884E+018,1672,0,,-0.330082446337,0,1.16532361507,0,0
1.74362817582132E+018,1673,0,,-0.330082446337,0,1.16532361507,0,0
1.74362817584467E+018,1674,0,,-0.330082446337,0,1.16532361507,0,0
1.74362817586425E+018,1675,0,,-0.330082446337,0,1.16532361507,0,0
1.7436281758935E+018,1676,0,,-0.330082446337,0,1.16532361507,0,0
1.74362817591856E+018,1677,0,,-0.330082446337,0,1.16532361507,0,0
1.74362817594416E+018,1678,0,,-0.330082446337,0,1.16532361507,0,0
1.74362817596472E+018,1679,0,,-0.330082446337,0,1.16532361507,0,0
1.74362817599118E+018,1680,0,,-0.330082446337,0,1.16532361507,0,0
1.74362817602097E+018,1681,0,,-0.330082446337,0,1.16532361507,0,0
1.74362817604189E+018,1682,0,,-0.330082446337,0,1.16532361507,0,0
1.74362817606423E+018,1683,0,,-0.330082446337,0,1.16532361507,0,0
1.74362817608949E+018,1684,0,,-0.330082446337,0,1.16532361507,0,0
1.74362817612064E+018,1685,0,,-0.330082446337,0,1.16532361507,0,0
1.7436281761429E+018,1686,0,,-0.330082446337,0,1.16532361507,0,0
1.74362817616857E+018,1687,0,,-0.262188732624,0,1.11540174484,0,0
1.74362817618993E+018,1688,0,,-0.163166120648,0,1.11540174484,0,0
1.74362817621668E+018,1689,0,,0,0,1.11540174484,0,0
1.74362817623857E+018,1690,0,,0,0,1.11540174484,0,0
1.74362817626859E+018,1691,0,,0,0,1.11540174484,0,0
1.74362817628878E+018,1692,0,,0,0,1.11540174484,0,0
1.74362817632003E+018,1693,0,,0,0,1.11540174484,0,0
1.74362817634107E+018,1694,0,,0,0,1.11540174484,0,0
1.74362817636623E+018,1695,0,,0,0,1.11540174484,0,0
1.74362817639018E+018,1696,0,,0,0,1.11540174484,0,0
1.74362817641451E+018,1697,0,,0,0,1.11540174484,0,0
1.74362817644271E+018,1698,0,,0,0,1.11540174484,0,0
1.74362817646423E+018,1699,0,,0,0,1.11540174484,0,0
1.74362817648944E+018,1700,0,,0,0,1.11540174484,0,0
1.74362817651342E+018,1701,0,,0,0,1.11540174484,0,0
1.74362817654322E+018,1702,0,,0,0,1.11540174484,0,0
1.74362817656462E+018,1703,0,,0,0,1.11540174484,0,0
1.74362817659068E+018,1704,0,,0,0,1.11540174484,0,0
1.74362817661461E+018,1705,0,,0,0,1.06547987461,0,0
1.74362817664567E+018,1706,0,,0,0,1.04051887989,0,0
1.74362817666495E+018,1707,0,,0,0,1.04051887989,0,0
1.7436281766918E+018,1708,0,,0,0,1.04051887989,0,0
1.7436281767164E+018,1709,0,,0,0,1.04051887989,0,0
1.7436281767391E+018,1710,0,,0,0,1.04051887989,0,0
1.74362817676665E+018,1711,0,,0,0,1.04051887989,0,0
1.74362817678877E+018,1712,0,,0,0,1.04051887989,0,0
1.74362817681597E+018,1713,0,,0,0,1.04051887989,0,0
1.74362817684151E+018,1714,0,,0,0,1.04051887989,0,0
1.74362817686428E+018,1715,0,,0,0,1.04051887989,0,0
1.74362817689255E+018,1716,0,,0,0,1.04051887989,0,0
1.74362817691682E+018,1717,0,,0,0,1.04051887989,0,0
1.7436281769421E+018,1718,0,,0,0,1.04051887989,0,0
1.74362817696359E+018,1719,0,,0,0,1.04051887989,0,0
1.74362817699254E+018,1720,0,,0,0,1.04051887989,0,0
1.7436281770193E+018,1721,0,,0,0,1.04051887989,0,0
1.74362817704476E+018,1722,0,,0,0,1.04051887989,0,0
1.74362817706871E+018,1723,0,,0,0,1.04051887989,0,0
1.74362817709064E+018,1724,0,,0,0,1.04051887989,0,0
1.7436281771135E+018,1725,0,,0,0,1.04051887989,0,0
1.74362817714251E+018,1726,0,,0,0,1.04051887989,0,0
1.74362817716692E+018,1727,0,,0,0,1.04051887989,0,0
1.74362817719694E+018,1728,0,,-0.0245388392359,0,1.04051887989,0,0
1.74362817721695E+018,1729,0,,-0.115074723959,0,1.04051887989,0,0
1.74362817724142E+018,1730,0,,-0.231070771813,0,1.04051887989,0,0
1.74362817726762E+018,1731,0,,-0.321595728397,0,1.04051887989,0,0
1.74362817729153E+018,1732,0,,-0.321595728397,0,1.04051887989,0,0
1.743628177321E+018,1733,0,,-0.321595728397,0,1.04051887989,0,0
1.7436281773452E+018,1734,0,,-0.321595728397,0,1.04051887989,0,0
1.74362817736793E+018,1735,0,,-0.321595728397,0,1.04051887989,0,0
1.7436281773944E+018,1736,0,,-0.321595728397,0,1.04051887989,0,0
1.7436281774195E+018,1737,0,,-0.321595728397,0,1.04051887989,0,0
1.74362817744194E+018,1738,0,,-0.321595728397,0,1.04051887989,0,0
1.74362817746646E+018,1739,0,,-0.321595728397,0,1.04051887989,0,0
1.74362817749044E+018,1740,0,,-0.321595728397,0,1.04051887989,0,0
1.74362817751753E+018,1741,0,,-0.321595728397,0,1.04051887989,0,0
1.74362817754106E+018,1742,0,,-0.321595728397,0,1.04051887989,0,0
1.74362817757185E+018,1743,0,,-0.321595728397,0,1.04051887989,0,0
1.74362817759429E+018,1744,0,,-0.321595728397,0,1.04051887989,0,0
1.74362817762435E+018,1745,0,,-0.321595728397,0,1.04051887989,0,0
1.74362817764525E+018,1746,0,,-0.321595728397,0,1.04051887989,0,0
1.74362817766889E+018,1747,0,,-0.321595728397,0,1.04051887989,0,0
1.74362817769236E+018,1748,0,,-0.321595728397,0,1.04051887989,0,0
1.74362817771648E+018,1749,0,,-0.321595728397,0,1.04051887989,0,0
1.74362817773928E+018,1750,0,,-0.321595728397,0,1.04051887989,0,0
1.74362817777034E+018,1751,0,,-0.321595728397,0,1.04051887989,0,0
1.74362817779556E+018,1752,0,,-0.321595728397,0,1.04051887989,0,0
1.74362817781832E+018,1753,0,,-0.321595728397,0,1.04051887989,0,0
1.74362817784135E+018,1754,0,,-0.321595728397,0,1.04051887989,0,0
1.74362817786581E+018,1755,0,,-0.279162168503,0,1.04051887989,0,0
1.74362817789489E+018,1756,0,,-0.202770799398,0,1.04051887989,0,0
1.74362817791535E+018,1757,0,,0,0,1.04051887989,0,0
1.74362817793914E+018,1758,0,,0,0,1.04051887989,0,0
1.74362817796506E+018,1759,0,,0,0,1.04051887989,0,0
1.74362817799403E+018,1760,0,,0,0,1.04051887989,0,0
1.74362817801935E+018,1761,0,,0,0,1.04051887989,0,0
1.74362817804535E+018,1762,0,,0,0,1.04051887989,0,0
1.74362817806395E+018,1763,0,,0,0,1.04051887989,0,0
1.74362817809429E+018,1764,0,,0,0,1.04051887989,0,0
1.74362817812124E+018,1765,0,,0,0,1.04051887989,0,0
1.74362817814221E+018,1766,0,,0,0,1.04051887989,0,0
1.74362817816389E+018,1767,0,,0,0,1.04051887989,0,0
1.74362817818884E+018,1768,0,,0,0,1.04051887989,0,0
1.74362817821411E+018,1769,0,,0,0,1.04051887989,0,0
1.74362817824428E+018,1770,0,,0,0,1.04051887989,0,0
1.74362817826626E+018,1771,0,,0,0,1.04051887989,0,0
1.74362817828913E+018,1772,0,,0,0,1.04051887989,0,0
1.74362817831399E+018,1773,0,,0,0,1.04051887989,0,0
1.74362817833931E+018,1774,0,,0,0,1.04051887989,0,0
1.74362817836529E+018,1775,0,,0,0,1.04051887989,0,0
1.74362817838877E+018,1776,0,,0,0,1.04051887989,0,0
1.74362817842009E+018,1777,0,,0,0,1.04051887989,0,0
1.74362817844573E+018,1778,0,,0,0,1.16532361507,0,0
1.74362817846877E+018,1779,0,,0,0,1.19028449059,0,0
1.74362817848949E+018,1780,0,,0,0,1.19028449059,0,0
1.74362817851827E+018,1781,0,,0,0,1.24020636082,0,0
1.743628178543E+018,1782,0,,0,0,1.24020636082,0,0
1.74362817857132E+018,1783,0,,0,0,1.26516735554,0,0
1.74362817859181E+018,1784,0,,0,0,1.26516735554,0,0
1.74362817861731E+018,1785,0,,0,0,1.26516735554,0,0
1.74362817864172E+018,1786,0,,0,0,1.26516735554,0,0
1.74362817866637E+018,1787,0,,0,0,1.26516735554,0,0
1.74362817869162E+018,1788,0,,0.0245606862009,0,1.26516735554,0,0
1.74362817871637E+018,1789,0,,0.0783098861575,0,1.26516735554,0,0
1.7436281787426E+018,1790,0,,0.29898634553,0,1.26516735554,0,0
1.74362817876417E+018,1791,0,,0.338591009378,0,1.26516735554,0,0
1.74362817879535E+018,1792,0,,0.340000003576,0,1.26516735554,0,0
1.74362817882128E+018,1793,0,,0.340000003576,0,1.26516735554,0,0
1.74362817884624E+018,1794,0,,0.340000003576,0,1.26516735554,0,0
1.7436281788651E+018,1795,0,,0.340000003576,0,1.26516735554,0,0
1.74362817889474E+018,1796,0,,0.340000003576,0,1.26516735554,0,0
1.74362817892023E+018,1797,0,,0.340000003576,0,1.26516735554,0,0
1.7436281789386E+018,1798,0,,0.340000003576,0,1.26516735554,0,0
1.74362817896836E+018,1799,0,,0.340000003576,0,1.26516735554,0,0
1.74362817898852E+018,1800,0,,0.340000003576,0,1.26516735554,0,0
1.74362817902041E+018,1801,0,,0.340000003576,0,1.26516735554,0,0
1.74362817904139E+018,1802,0,,0.340000003576,0,1.26516735554,0,0
1.7436281790664E+018,1803,0,,0.340000003576,0,1.26516735554,0,0
1.74362817908941E+018,1804,0,,0.340000003576,0,1.26516735554,0,0
1.74362817911353E+018,1805,0,,0.340000003576,0,1.26516735554,0,0
1.74362817914328E+018,1806,0,,0.340000003576,0,1.26516735554,0,0
1.7436281791689E+018,1807,0,,0.340000003576,0,1.26516735554,0,0
1.7436281791925E+018,1808,0,,0.340000003576,0,1.26516735554,0,0
1.74362817921414E+018,1809,0,,0.340000003576,0,1.26516735554,0,0
1.74362817924769E+018,1810,0,,0.340000003576,0,1.26516735554,0,0
1.74362817926889E+018,1811,0,,0.340000003576,0,1.26516735554,0,0
1.74362817928976E+018,1812,0,,0.340000003576,0,1.26516735554,0,0
1.74362817931652E+018,1813,0,,0.340000003576,0,1.26516735554,0,0
1.74362817934156E+018,1814,0,,0.340000003576,0,1.26516735554,0,0
1.7436281793688E+018,1815,0,,0.340000003576,0,1.26516735554,0,0
1.74362817939516E+018,1816,0,,0.340000003576,0,1.26516735554,0,0
1.74362817941779E+018,1817,0,,0.340000003576,0,1.26516735554,0,0
1.7436281794384E+018,1818,0,,0.340000003576,0,1.26516735554,0,0
1.7436281794652E+018,1819,0,,0.340000003576,0,1.26516735554,0,0
1.74362817948885E+018,1820,0,,0.340000003576,0,1.26516735554,0,0
1.74362817952038E+018,1821,0,,0.340000003576,0,1.26516735554,0,0
1.74362817954114E+018,1822,0,,0.340000003576,0,1.26516735554,0,0
1.74362817956964E+018,1823,0,,0.340000003576,0,1.26516735554,0,0
1.74362817959627E+018,1824,0,,0.340000003576,0,1.26516735554,0,0
1.74362817962215E+018,1825,0,,0.340000003576,0,1.26516735554,0,0
1.74362817964532E+018,1826,0,,0.340000003576,0,1.26516735554,0,0
1.74362817966416E+018,1827,0,,0.340000003576,0,1.26516735554,0,0
1.74362817968884E+018,1828,0,,0.340000003576,0,1.26516735554,0,0
1.7436281797141E+018,1829,0,,0.340000003576,0,1.26516735554,0,0
1.74362817974388E+018,1830,0,,0.340000003576,0,1.26516735554,0,0
1.74362817976371E+018,1831,0,,0.330104291439,0,1.26516735554,0,0
1.74362817978999E+018,1832,0,,0.253723859787,0,1.26516735554,0,0
1.74362817981829E+018,1833,0,,0,0,1.26516735554,0,0
1.74362817984595E+018,1834,0,,0,0,1.26516735554,0,0
1.74362817986385E+018,1835,0,,0,0,1.26516735554,0,0
1.74362817989323E+018,1836,0,,0,0,1.26516735554,0,0
1.74362817991668E+018,1837,0,,0,0,1.26516735554,0,0
1.74362817994425E+018,1838,0,,0,0,1.26516735554,0,0
1.74362817996804E+018,1839,0,,0,0,1.26516735554,0,0
1.74362817998872E+018,1840,0,,0,0,1.26516735554,0,0
1.74362818001822E+018,1841,0,,0,0,1.26516735554,0,0
1.743628180041E+018,1842,0,,0,0,1.26516735554,0,0
1.74362818006354E+018,1843,0,,0,0,1.26516735554,0,0
1.74362818009383E+018,1844,0,,0,0,1.06547987461,0,0
1.74362818011635E+018,1845,0,,-0.112245827913,0,1.04051887989,0,0
1.74362818014351E+018,1846,0,,-0.202770799398,0,1.04051887989,0,0
1.74362818016657E+018,1847,0,,-0.318766832352,0,1.04051887989,0,0
1.74362818018943E+018,1848,0,,-0.318766832352,0,1.04051887989,0,0
1.74362818021364E+018,1849,0,,-0.318766832352,0,0.990597128868,0,0
1.74362818023867E+018,1850,0,,-0.318766832352,0,0.990597128868,0,0
1.74362818026351E+018,1851,0,,-0.318766832352,0,0.990597128868,0,0
1.74362818029074E+018,1852,0,,-0.318766832352,0,0.990597128868,0,0
1.74362818031783E+018,1853,0,,-0.318766832352,0,0.990597128868,0,0
1.74362818034118E+018,1854,0,,-0.318766832352,0,0.990597128868,0,0
1.74362818036744E+018,1855,0,,-0.318766832352,0,0.990597128868,0,0
1.74362818038903E+018,1856,0,,-0.318766832352,0,0.990597128868,0,0
1.7436281804136E+018,1857,0,,-0.318766832352,0,0.990597128868,0,0
1.74362818044357E+018,1858,0,,-0.318766832352,0,0.990597128868,0,0
1.74362818046426E+018,1859,0,,-0.318766832352,0,0.965636193752,0,0
1.74362818049253E+018,1860,0,,-0.318766832352,0,0.965636193752,0,0
1.74362818051998E+018,1861,0,,-0.318766832352,0,0.965636193752,0,0
1.74362818054477E+018,1862,0,,-0.318766832352,0,0.965636193752,0,0
1.74362818056946E+018,1863,0,,-0.318766832352,0,0.965636193752,0,0
1.7436281805925E+018,1864,0,,-0.318766832352,0,0.965636193752,0,0
1.74362818061453E+018,1865,0,,-0.318766832352,0,0.965636193752,0,0
1.7436281806438E+018,1866,0,,-0.318766832352,0,0.965636193752,0,0
1.74362818066488E+018,1867,0,,-0.318766832352,0,0.965636193752,0,0
1.74362818069571E+018,1868,0,,-0.318766832352,0,0.965636193752,0,0
1.74362818071812E+018,1869,0,,-0.318766832352,0,0.965636193752,0,0
1.74362818074395E+018,1870,0,,-0.318766832352,0,0.965636193752,0,0
1.74362818076917E+018,1871,0,,-0.318766832352,0,0.965636193752,0,0
1.74362818079526E+018,1872,0,,-0.318766832352,0,0.965636193752,0,0
1.74362818082103E+018,1873,0,,-0.318766832352,0,0.965636193752,0,0
1.7436281808462E+018,1874,0,,-0.318766832352,0,0.965636193752,0,0
1.7436281808643E+018,1875,0,,-0.318766832352,0,0.965636193752,0,0
1.74362818088897E+018,1876,0,,-0.318766832352,0,0.965636193752,0,0
1.74362818092125E+018,1877,0,,-0.318766832352,0,0.965636193752,0,0
1.74362818094535E+018,1878,0,,-0.318766832352,0,0.965636193752,0,0
1.74362818096842E+018,1879,0,,-0.318766832352,0,0.965636193752,0,0
1.74362818099558E+018,1880,0,,-0.318766832352,0,0.965636193752,0,0
1.74362818101353E+018,1881,0,,-0.318766832352,0,0.965636193752,0,0
1.7436281810434E+018,1882,0,,-0.318766832352,0,0.965636193752,0,0
1.74362818106539E+018,1883,0,,-0.318766832352,0,0.965636193752,0,0
1.74362818108872E+018,1884,0,,-0.318766832352,0,0.965636193752,0,0
1.74362818111694E+018,1885,0,,-0.318766832352,0,0.965636193752,0,0
1.74362818114271E+018,1886,0,,-0.318766832352,0,0.965636193752,0,0
1.74362818116548E+018,1887,0,,-0.318766832352,0,0.965636193752,0,0
1.74362818118885E+018,1888,0,,-0.318766832352,0,0.965636193752,0,0
1.74362818121804E+018,1889,0,,-0.318766832352,0,0.965636193752,0,0
1.74362818123938E+018,1890,0,,-0.318766832352,0,0.965636193752,0,0
1.74362818126363E+018,1891,0,,-0.318766832352,0,0.965636193752,0,0
1.74362818129121E+018,1892,0,,-0.318766832352,0,0.965636193752,0,0
1.74362818131834E+018,1893,0,,-0.318766832352,0,0.965636193752,0,0
1.74362818134134E+018,1894,0,,-0.318766832352,0,0.965636193752,0,0
1.74362818136379E+018,1895,0,,-0.318766832352,0,0.965636193752,0,0
1.74362818138892E+018,1896,0,,-0.318766832352,0,0.965636193752,0,0
1.74362818142236E+018,1897,0,,-0.318766832352,0,0.965636193752,0,0
1.74362818144465E+018,1898,0,,-0.318766832352,0,0.965636193752,0,0
1.74362818146441E+018,1899,0,,-0.318766832352,0,0.965636193752,0,0
1.74362818148861E+018,1900,0,,-0.318766832352,0,0.965636193752,0,0
1.74362818152152E+018,1901,0,,-0.318766832352,0,0.965636193752,0,0
1.74362818154563E+018,1902,0,,-0.318766832352,0,0.965636193752,0,0
1.74362818156638E+018,1903,0,,-0.318766832352,0,0.965636193752,0,0
1.74362818158892E+018,1904,0,,-0.318766832352,0,0.965636193752,0,0
1.74362818161856E+018,1905,0,,-0.318766832352,0,0.965636193752,0,0
1.74362818164711E+018,1906,0,,-0.318766832352,0,0.965636193752,0,0
1.74362818166692E+018,1907,0,,-0.318766832352,0,0.965636193752,0,0
1.74362818168888E+018,1908,0,,-0.318766832352,0,0.965636193752,0,0
1.74362818171449E+018,1909,0,,-0.318766832352,0,0.915714263916,0,0
1.74362818174045E+018,1910,0,,-0.318766832352,0,0.915714263916,0,0
1.74362818177176E+018,1911,0,,-0.318766832352,0,0.915714263916,0,0
1.74362818179251E+018,1912,0,,-0.318766832352,0,0.915714263916,0,0
1.74362818182058E+018,1913,0,,-0.318766832352,0,0.915714263916,0,0
1.74362818184672E+018,1914,0,,-0.318766832352,0,0.915714263916,0,0
1.74362818186378E+018,1915,0,,-0.222573131323,0,0.915714263916,0,0
1.74362818188911E+018,1916,0,,-0.134877070785,0,0.915714263916,0,0
1.74362818191817E+018,1917,0,,0,0,0.915714263916,0,0
1.74362818194239E+018,1918,0,,0,0,0.915714263916,0,0
1.74362818196916E+018,1919,0,,0,0,0.915714263916,0,0
1.74362818198894E+018,1920,0,,0,0,0.915714263916,0,0
1.74362818202162E+018,1921,0,,0,0,0.915714263916,0,0
1.7436281820454E+018,1922,0,,0,0,0.915714263916,0,0
1.74362818206883E+018,1923,0,,0,0,0.915714263916,0,0
1.74362818208938E+018,1924,0,,0,0,0.915714263916,0,0
1.74362818211845E+018,1925,0,,0,0,0.915714263916,0,0
1.74362818213998E+018,1926,0,,0,0,0.915714263916,0,0
1.74362818216349E+018,1927,0,,0,0,0.915714263916,0,0
1.74362818218855E+018,1928,0,,0,0,0.915714263916,0,0
1.74362818222091E+018,1929,0,,-0.0160521250218,0,0.915714263916,0,0
1.74362818223885E+018,1930,0,,-0.0980903804302,0,0.915714263916,0,0
1.74362818226374E+018,1931,0,,-0.134877070785,0,0.915714263916,0,0
1.74362818228967E+018,1932,0,,-0.26501762867,0,0.915714263916,0,0
1.74362818231815E+018,1933,0,,-0.318766832352,0,0.915714263916,0,0
1.74362818234163E+018,1934,0,,-0.318766832352,0,0.915714263916,0,0
1.7436281823665E+018,1935,0,,-0.318766832352,0,0.915714263916,0,0
1.74362818238938E+018,1936,0,,-0.318766832352,0,0.915714263916,0,0
1.74362818241354E+018,1937,0,,-0.318766832352,0,0.915714263916,0,0
1.74362818243855E+018,1938,0,,-0.318766832352,0,0.915714263916,0,0
1.74362818246878E+018,1939,0,,-0.318766832352,0,0.915714263916,0,0
1.74362818248956E+018,1940,0,,-0.318766832352,0,0.915714263916,0,0
1.74362818251606E+018,1941,0,,-0.318766832352,0,0.915714263916,0,0
1.74362818253865E+018,1942,0,,-0.318766832352,0,0.915714263916,0,0
1.74362818256381E+018,1943,0,,-0.318766832352,0,0.915714263916,0,0
1.74362818258871E+018,1944,0,,-0.318766832352,0,0.915714263916,0,0
1.74362818262096E+018,1945,0,,-0.318766832352,0,0.915714263916,0,0
1.74362818263892E+018,1946,0,,-0.318766832352,0,0.915714263916,0,0
1.74362818267189E+018,1947,0,,-0.318766832352,0,0.915714263916,0,0
1.74362818269155E+018,1948,0,,-0.318766832352,0,0.915714263916,0,0
1.74362818271662E+018,1949,0,,-0.318766832352,0,0.915714263916,0,0
1.74362818274137E+018,1950,0,,-0.318766832352,0,0.915714263916,0,0
1.74362818276495E+018,1951,0,,-0.318766832352,0,0.915714263916,0,0
1.74362818278874E+018,1952,0,,-0.318766832352,0,0.915714263916,0,0
1.74362818281711E+018,1953,0,,-0.318766832352,0,0.915714263916,0,0
1.74362818283848E+018,1954,0,,-0.318766832352,0,0.915714263916,0,0
1.74362818286943E+018,1955,0,,-0.318766832352,0,0.915714263916,0,0
1.74362818289409E+018,1956,0,,-0.318766832352,0,0.915714263916,0,0
1.74362818292048E+018,1957,0,,-0.318766832352,0,0.915714263916,0,0
1.74362818293931E+018,1958,0,,-0.318766832352,0,0.915714263916,0,0
1.74362818297E+018,1959,0,,-0.318766832352,0,0.915714263916,0,0
1.74362818299382E+018,1960,0,,-0.318766832352,0,0.915714263916,0,0
1.7436281830158E+018,1961,0,,-0.318766832352,0,0.915714263916,0,0
1.74362818304582E+018,1962,0,,-0.318766832352,0,0.915714263916,0,0
1.7436281830646E+018,1963,0,,-0.318766832352,0,0.915714263916,0,0
1.74362818309229E+018,1964,0,,-0.318766832352,0,0.915714263916,0,0
1.74362818311415E+018,1965,0,,-0.318766832352,0,0.915714263916,0,0
1.74362818313889E+018,1966,0,,-0.318766832352,0,0.915714263916,0,0
1.74362818316791E+018,1967,0,,-0.318766832352,0,0.915714263916,0,0
1.74362818319392E+018,1968,0,,-0.318766832352,0,0.915714263916,0,0
1.74362818321612E+018,1969,0,,-0.318766832352,0,0.915714263916,0,0
1.74362818323976E+018,1970,0,,-0.281991064548,0,0.915714263916,0,0
1.74362818326603E+018,1971,0,,-0.10658800602,0,0.915714263916,0,0
1.74362818328914E+018,1972,0,,-0.0245388392359,0,0.915714263916,0,0
1.74362818331573E+018,1973,0,,0,0,0.915714263916,0,0
1.74362818334258E+018,1974,0,,0,0,0.915714263916,0,0
1.74362818336672E+018,1975,0,,0,0,0.915714263916,0,0
1.74362818339462E+018,1976,0,,0,0,0.915714263916,0,0
1.74362818341457E+018,1977,0,,0,0,0.915714263916,0,0
1.7436281834452E+018,1978,0,,0,0,0.915714263916,0,0
1.74362818346507E+018,1979,0,,0,0,0.915714263916,0,0
1.74362818348952E+018,1980,0,,0,0,0.915714263916,0,0
1.74362818351555E+018,1981,0,,0,0,0.915714263916,0,0
1.74362818354314E+018,1982,0,,0,0,0.915714263916,0,0
1.74362818356511E+018,1983,0,,0,0,0.915714263916,0,0
1.7436281835911E+018,1984,0,,0,0,0.915714263916,0,0
1.74362818362034E+018,1985,0,,0,0,0.915714263916,0,0
1.74362818364159E+018,1986,0,,0,0,0.915714263916,0,0
1.74362818366868E+018,1987,0,,0,0,0.915714263916,0,0
1.74362818368866E+018,1988,0,,0,0,0.915714263916,0,0
1.74362818371422E+018,1989,0,,0,0,0.915714263916,0,0
1.74362818374156E+018,1990,0,,0,0,0.915714263916,0,0
1.74362818376977E+018,1991,0,,0,0,0.915714263916,0,0
1.74362818379392E+018,1992,0,,0,0,0.915714263916,0,0
1.7436281838162E+018,1993,0,,0,0,0.915714263916,0,0
1.74362818384003E+018,1994,0,,0,0,0.915714263916,0,0
1.74362818386384E+018,1995,0,,0,0,0.915714263916,0,0
1.7436281838891E+018,1996,0,,0,0,0.915714263916,0,0
1.74362818391756E+018,1997,0,,-0.0669724196196,0,0.915714263916,0,0
1.74362818393931E+018,1998,0,,-0.129219263792,0,0.915714263916,0,0
1.74362818396469E+018,1999,0,,-0.262188732624,0,0.915714263916,0,0
1.74362818399288E+018,2000,0,,-0.327253550291,0,0.915714263916,0,0
1.74362818401444E+018,2001,0,,-0.327253550291,0,0.915714263916,0,0
1.7436281840452E+018,2002,0,,-0.327253550291,0,0.915714263916,0,0
1.74362818406416E+018,2003,0,,-0.327253550291,0,0.915714263916,0,0
1.74362818409128E+018,2004,0,,-0.327253550291,0,0.915714263916,0,0
1.74362818411788E+018,2005,0,,-0.327253550291,0,0.915714263916,0,0
1.74362818414223E+018,2006,0,,-0.327253550291,0,0.915714263916,0,0
1.74362818416657E+018,2007,0,,-0.327253550291,0,0.915714263916,0,0
1.7436281841942E+018,2008,0,,-0.327253550291,0,0.915714263916,0,0
1.74362818421574E+018,2009,0,,-0.327253550291,0,0.915714263916,0,0
1.74362818424176E+018,2010,0,,-0.327253550291,0,0.915714263916,0,0
1.743628184267E+018,2011,0,,-0.327253550291,0,0.915714263916,0,0
1.7436281842912E+018,2012,0,,-0.327253550291,0,0.915714263916,0,0
1.74362818431969E+018,2013,0,,-0.327253550291,0,0.915714263916,0,0
1.74362818434268E+018,2014,0,,-0.327253550291,0,0.915714263916,0,0
1.7436281843653E+018,2015,0,,-0.327253550291,0,0.915714263916,0,0
1.74362818439491E+018,2016,0,,-0.327253550291,0,0.915714263916,0,0
1.743628184415E+018,2017,0,,-0.327253550291,0,0.915714263916,0,0
1.74362818444507E+018,2018,0,,-0.327253550291,0,0.915714263916,0,0
1.74362818446354E+018,2019,0,,-0.327253550291,0,0.915714263916,0,0
1.74362818448851E+018,2020,0,,-0.327253550291,0,0.915714263916,0,0
1.74362818451935E+018,2021,0,,-0.327253550291,0,0.915714263916,0,0
1.74362818454174E+018,2022,0,,-0.17731064558,0,0.915714263916,0,0
1.7436281845662E+018,2023,0,,-0.00756540987641,0,0.915714263916,0,0
1.7436281845941E+018,2024,0,,0,0,0.915714263916,0,0
1.74362818461475E+018,2025,0,,0,0,0.915714263916,0,0
1.74362818464235E+018,2026,0,,0,0,0.915714263916,0,0
1.74362818466411E+018,2027,0,,0,0,0.915714263916,0,0
1.74362818469032E+018,2028,0,,0,0,0.915714263916,0,0
1.74362818471815E+018,2029,0,,0,0,0.915714263916,0,0
1.74362818474376E+018,2030,0,,0,0,0.915714263916,0,0
1.74362818476915E+018,2031,0,,0,0,0.915714263916,0,0
1.74362818479207E+018,2032,0,,0,0,0.915714263916,0,0
1.74362818481856E+018,2033,0,,0,0,0.915714263916,0,0
1.74362818483948E+018,2034,0,,0,0,0.915714263916,0,0
1.74362818486349E+018,2035,0,,0,0,0.915714263916,0,0
1.743628184893E+018,2036,0,,0,0,0.915714263916,0,0
1.74362818492091E+018,2037,0,,0,0,0.915714263916,0,0
1.74362818494109E+018,2038,0,,0,0,0.915714263916,0,0
1.74362818496397E+018,2039,0,,0,0,0.915714263916,0,0
1.74362818499484E+018,2040,0,,0,0,0.915714263916,0,0
1.74362818501891E+018,2041,0,,0,0,0.915714263916,0,0
1.74362818504516E+018,2042,0,,0,0,0.915714263916,0,0
1.7436281850633E+018,2043,0,,0,0,0.915714263916,0,0
1.74362818509068E+018,2044,0,,0,0,0.915714263916,0,0
1.74362818512085E+018,2045,0,,-0.00190759962425,0,0.915714263916,0,0
1.74362818514315E+018,2046,0,,-0.0245388392359,0,0.915714263916,0,0
1.74362818516638E+018,2047,0,,-0.0641435086727,0,0.915714263916,0,0
1.74362818519205E+018,2048,0,,-0.126390352845,0,0.915714263916,0,0
1.74362818521886E+018,2049,0,,-0.182968452573,0,0.915714263916,0,0
1.7436281852423E+018,2050,0,,-0.262188732624,0,0.915714263916,0,0
1.74362818526541E+018,2051,0,,-0.304622292519,0,0.915714263916,0,0
1.74362818528959E+018,2052,0,,-0.304622292519,0,0.915714263916,0,0
1.7436281853166E+018,2053,0,,-0.304622292519,0,0.915714263916,0,0
1.74362818534391E+018,2054,0,,-0.304622292519,0,0.915714263916,0,0
1.74362818536791E+018,2055,0,,-0.304622292519,0,0.915714263916,0,0
1.74362818539066E+018,2056,0,,-0.304622292519,0,0.915714263916,0,0
1.74362818542103E+018,2057,0,,-0.304622292519,0,0.915714263916,0,0
1.74362818544334E+018,2058,0,,-0.304622292519,0,0.915714263916,0,0
1.74362818546623E+018,2059,0,,-0.304622292519,0,0.915714263916,0,0
1.74362818548898E+018,2060,0,,-0.304622292519,0,0.915714263916,0,0
1.74362818551964E+018,2061,0,,-0.304622292519,0,0.915714263916,0,0
1.74362818554439E+018,2062,0,,-0.304622292519,0,0.915714263916,0,0
1.74362818556353E+018,2063,0,,-0.304622292519,0,0.915714263916,0,0
1.74362818559345E+018,2064,0,,-0.304622292519,0,0.915714263916,0,0
1.74362818562031E+018,2065,0,,-0.304622292519,0,0.915714263916,0,0
1.74362818564203E+018,2066,0,,-0.304622292519,0,0.915714263916,0,0
1.74362818566484E+018,2067,0,,-0.304622292519,0,0.915714263916,0,0
1.74362818569214E+018,2068,0,,-0.304622292519,0,0.915714263916,0,0
1.74362818571567E+018,2069,0,,-0.304622292519,0,0.915714263916,0,0
1.7436281857443E+018,2070,0,,-0.304622292519,0,0.915714263916,0,0
1.74362818576861E+018,2071,0,,-0.304622292519,0,0.915714263916,0,0
1.74362818579447E+018,2072,0,,-0.304622292519,0,0.915714263916,0,0
1.74362818581948E+018,2073,0,,-0.304622292519,0,0.915714263916,0,0
1.74362818584024E+018,2074,0,,-0.304622292519,0,0.915714263916,0,0
1.74362818586402E+018,2075,0,,-0.304622292519,0,0.915714263916,0,0
1.74362818588857E+018,2076,0,,-0.304622292519,0,0.915714263916,0,0
1.74362818592114E+018,2077,0,,-0.304622292519,0,0.865696072578,0,0
1.74362818594488E+018,2078,0,,-0.304622292519,0,0.865696072578,0,0
1.74362818596954E+018,2079,0,,-0.202770799398,0,0.865696072578,0,0
1.74362818599503E+018,2080,0,,-0.0160521250218,0,0.865696072578,0,0
1.74362818601721E+018,2081,0,,0,0,0.865696072578,0,0
1.74362818603965E+018,2082,0,,0,0,0.865696072578,0,0
1.74362818606917E+018,2083,0,,0,0,0.865696072578,0,0
1.74362818609317E+018,2084,0,,0,0,0.965636193752,0,0
1.74362818611713E+018,2085,0,,0,0,0.965636193752,0,0
1.74362818614185E+018,2086,0,,0,0,0.965636193752,0,0
1.7436281861703E+018,2087,0,,0,0,0.965636193752,0,0
1.74362818619379E+018,2088,0,,0,0,0.965636193752,0,0
1.74362818621573E+018,2089,0,,0,0,0.990597128868,0,0
1.7436281862442E+018,2090,0,,0,0,0.990597128868,0,0
1.74362818626424E+018,2091,0,,0,0,0.990597128868,0,0
1.74362818628897E+018,2092,0,,0,0,0.990597128868,0,0
1.74362818631731E+018,2093,0,,0,0,0.990597128868,0,0
1.74362818634469E+018,2094,0,,0,0,0.990597128868,0,0
1.7436281863672E+018,2095,0,,0,0,0.990597128868,0,0
1.74362818639312E+018,2096,0,,0,0,0.990597128868,0,0
1.74362818642139E+018,2097,0,,0,0,0.990597128868,0,0
1.74362818644349E+018,2098,0,,0,0,0.990597128868,0,0
1.74362818646397E+018,2099,0,,0,0,0.990597128868,0,0
1.74362818649089E+018,2100,0,,0,0,0.990597128868,0,0
1.74362818651844E+018,2101,0,,0,0,0.990597128868,0,0
1.74362818654216E+018,2102,0,,0,0,0.990597128868,0,0
1.74362818657118E+018,2103,0,,0,0,0.990597128868,0,0
1.74362818659316E+018,2104,0,,0,0,0.990597128868,0,0
1.74362818662089E+018,2105,0,,0,0,0.990597128868,0,0
1.74362818664671E+018,2106,0,,0,0,0.990597128868,0,0
1.74362818666651E+018,2107,0,,0,0,0.990597128868,0,0
1.74362818669184E+018,2108,0,,0,0,0.990597128868,0,0
1.74362818671516E+018,2109,0,,0,0,0.990597128868,0,0
1.74362818673889E+018,2110,0,,0,0,0.990597128868,0,0
1.74362818676731E+018,2111,0,,0,0,0.990597128868,0,0
1.74362818679502E+018,2112,0,,0,0,0.990597128868,0,0
1.74362818681473E+018,2113,0,,0,0,0.990597128868,0,0
1.74362818684448E+018,2114,0,,0,0,0.990597128868,0,0
1.7436281868638E+018,2115,0,,0,0,0.990597128868,0,0
1.74362818689085E+018,2116,0,,0,0,0.990597128868,0,0
1.74362818691724E+018,2117,0,,0,0,0.990597128868,0,0
1.74362818694791E+018,2118,0,,0,0,0.990597128868,0,0
1.74362818697178E+018,2119,0,,0,0,0.990597128868,0,0
1.74362818699392E+018,2120,0,,0,0,0.990597128868,0,0
1.74362818701602E+018,2121,0,,0,0,0.990597128868,0,0
1.74362818703978E+018,2122,0,,0,0,0.990597128868,0,0
1.74362818706477E+018,2123,0,,0,0,0.990597128868,0,0
1.74362818708914E+018,2124,0,,0,0,0.990597128868,0,0
1.74362818712048E+018,2125,0,,0,0,0.990597128868,0,0
1.74362818714189E+018,2126,0,,0,0,0.990597128868,0,0
1.74362818716774E+018,2127,0,,0,0,0.990597128868,0,0
1.74362818718851E+018,2128,0,,0,0,0.990597128868,0,0
1.74362818721407E+018,2129,0,,0,0,0.990597128868,0,0
1.74362818724491E+018,2130,0,,0,0,0.990597128868,0,0
1.7436281872644E+018,2131,0,,0,0,0.990597128868,0,0
1.74362818729179E+018,2132,0,,0,0,0.990597128868,0,0
1.74362818731839E+018,2133,0,,0,0,0.990597128868,0,0
1.74362818734044E+018,2134,0,,0.0981122255325,0,0.990597128868,0,0
1.74362818736896E+018,2135,0,,0.199963733554,0,0.990597128868,0,0
1.74362818739213E+018,2136,0,,0.29049962759,0,0.990597128868,0,0
1.74362818741458E+018,2137,0,,0.338591009378,0,0.990597128868,0,0
1.74362818743938E+018,2138,0,,0.340000003576,0,0.990597128868,0,0
1.74362818746496E+018,2139,0,,0.340000003576,0,0.990597128868,0,0
1.74362818748852E+018,2140,0,,0.340000003576,0,0.990597128868,0,0
1.7436281875139E+018,2141,0,,0.340000003576,0,0.990597128868,0,0
1.74362818754613E+018,2142,0,,0.340000003576,0,0.990597128868,0,0
1.74362818756873E+018,2143,0,,0.340000003576,0,0.990597128868,0,0
1.74362818759155E+018,2144,0,,0.340000003576,0,0.990597128868,0,0
1.74362818762257E+018,2145,0,,0.340000003576,0,0.990597128868,0,0
1.74362818764592E+018,2146,0,,0.340000003576,0,0.990597128868,0,0
1.74362818766825E+018,2147,0,,0.340000003576,0,0.990597128868,0,0
1.74362818769191E+018,2148,0,,0.340000003576,0,0.990597128868,0,0
1.7436281877162E+018,2149,0,,0.340000003576,0,0.990597128868,0,0
1.74362818774499E+018,2150,0,,0.340000003576,0,0.990597128868,0,0
1.7436281877641E+018,2151,0,,0.340000003576,0,0.990597128868,0,0
1.7436281877929E+018,2152,0,,0.340000003576,0,0.990597128868,0,0
1.74362818782116E+018,2153,0,,0.340000003576,0,0.990597128868,0,0
1.74362818784338E+018,2154,0,,0.340000003576,0,0.990597128868,0,0
1.74362818786504E+018,2155,0,,0.340000003576,0,0.990597128868,0,0
1.74362818788936E+018,2156,0,,0.340000003576,0,0.990597128868,0,0
1.7436281879172E+018,2157,0,,0.340000003576,0,0.990597128868,0,0
1.74362818794255E+018,2158,0,,0.340000003576,0,0.990597128868,0,0
1.7436281879689E+018,2159,0,,0.340000003576,0,0.990597128868,0,0
1.74362818799584E+018,2160,0,,0.340000003576,0,0.990597128868,0,0
1.74362818801779E+018,2161,0,,0.340000003576,0,0.990597128868,0,0
1.74362818804388E+018,2162,0,,0.340000003576,0,0.990597128868,0,0
1.7436281880653E+018,2163,0,,0.279183983803,0,0.990597128868,0,0
1.74362818808897E+018,2164,0,,0.182990297675,0,0.990597128868,0,0
1.74362818811879E+018,2165,0,,0,0,0.990597128868,0,0
1.7436281881421E+018,2166,0,,0,0,0.990597128868,0,0
1.74362818816491E+018,2167,0,,0,0,0.990597128868,0,0
1.74362818819502E+018,2168,0,,0,0,0.990597128868,0,0
1.74362818821467E+018,2169,0,,0,0,0.990597128868,0,0
1.7436281882445E+018,2170,0,,0,0,0.990597128868,0,0
1.74362818826396E+018,2171,0,,0,0,0.990597128868,0,0
1.74362818828888E+018,2172,0,,0,0,0.990597128868,0,0
1.74362818831378E+018,2173,0,,0,0,0.990597128868,0,0
1.74362818834009E+018,2174,0,,0,0,0.990597128868,0,0
1.74362818837077E+018,2175,0,,0,0,0.990597128868,0,0
1.74362818839284E+018,2176,0,,-0.030196653679,0,0.990597128868,0,0
1.74362818842208E+018,2177,0,,-0.0584857016802,0,0.990597128868,0,0
1.74362818844452E+018,2178,0,,-0.0669724196196,0,0.990597128868,0,0
1.74362818846582E+018,2179,0,,-0.0782880410552,0,0.990597128868,0,0
1.74362818849011E+018,2180,0,,-0.0782880410552,0,0.990597128868,0,0
1.74362818851868E+018,2181,0,,-0.0782880410552,0,0.990597128868,0,0
1.74362818854475E+018,2182,0,,-0.095261476934,0,0.990597128868,0,0
1.74362818856578E+018,2183,0,,-0.126390352845,0,0.990597128868,0,0
1.74362818858856E+018,2184,0,,-0.174481734633,0,0.990597128868,0,0
1.74362818862002E+018,2185,0,,-0.211257502437,0,0.990597128868,0,0
1.74362818864088E+018,2186,0,,-0.25653091073,0,0.990597128868,0,0
1.74362818866336E+018,2187,0,,-0.279162168503,0,0.990597128868,0,0
1.74362818869325E+018,2188,0,,-0.290477782488,0,0.990597128868,0,0
1.74362818871631E+018,2189,0,,-0.290477782488,0,0.990597128868,0,0
1.74362818874253E+018,2190,0,,-0.290477782488,0,0.990597128868,0,0
1.74362818876777E+018,2191,0,,-0.290477782488,0,0.990597128868,0,0
1.74362818879062E+018,2192,0,,-0.290477782488,0,0.990597128868,0,0
1.74362818882119E+018,2193,0,,-0.290477782488,0,0.990597128868,0,0
1.7436281888427E+018,2194,0,,-0.26501762867,0,0.990597128868,0,0
1.74362818886349E+018,2195,0,,-0.191455170512,0,0.865696072578,0,0
1.74362818888892E+018,2196,0,,-0.0980903804302,0,0.865696072578,0,0
1.74362818892182E+018,2197,0,,-0.0103943152353,0,0.865696072578,0,0
1.74362818893882E+018,2198,0,,0,0,0.840735077858,0,0
1.74362818896395E+018,2199,0,,0,0,0.840735077858,0,0
1.7436281889921E+018,2200,0,,0,0,0.840735077858,0,0
1.74362818902039E+018,2201,0,,0,0,0.840735077858,0,0
1.74362818903954E+018,2202,0,,0,0,0.840735077858,0,0
1.74362818906423E+018,2203,0,,0,0,0.840735077858,0,0
1.7436281890917E+018,2204,0,,0,0,0.840735077858,0,0
1.74362818911714E+018,2205,0,,0,0,0.840735077858,0,0
1.74362818914363E+018,2206,0,,0,0,0.840735077858,0,0
1.743628189164E+018,2207,0,,0,0,0.840735077858,0,0
1.74362818919073E+018,2208,0,,0,0,0.840735077858,0,0
1.74362818921865E+018,2209,0,,0,0,0.840735077858,0,0
1.74362818924002E+018,2210,0,,0,0,0.840735077858,0,0
1.74362818926777E+018,2211,0,,0,0,0.840735077858,0,0
1.74362818929389E+018,2212,0,,0,0,0.840735077858,0,0
1.74362818931475E+018,2213,0,,-0.030196653679,0,0.840735077858,0,0
1.74362818934508E+018,2214,0,,-0.134877070785,0,0.840735077858,0,0
1.74362818936651E+018,2215,0,,-0.231070771813,0,0.840735077858,0,0
1.74362818938903E+018,2216,0,,-0.313109010458,0,0.840735077858,0,0
1.74362818941826E+018,2217,0,,-0.313109010458,0,0.840735077858,0,0
1.74362818944164E+018,2218,0,,-0.313109010458,0,0.840735077858,0,0
1.74362818946385E+018,2219,0,,-0.313109010458,0,0.840735077858,0,0
1.74362818949025E+018,2220,0,,-0.313109010458,0,0.840735077858,0,0
1.74362818951409E+018,2221,0,,-0.313109010458,0,0.840735077858,0,0
1.74362818954459E+018,2222,0,,-0.313109010458,0,0.840735077858,0,0
1.74362818956753E+018,2223,0,,-0.313109010458,0,0.840735077858,0,0
1.74362818958868E+018,2224,0,,-0.313109010458,0,0.840735077858,0,0
1.74362818961368E+018,2225,0,,-0.313109010458,0,0.840735077858,0,0
1.74362818964601E+018,2226,0,,-0.313109010458,0,0.840735077858,0,0
1.74362818967161E+018,2227,0,,-0.313109010458,0,0.840735077858,0,0
1.74362818969132E+018,2228,0,,-0.313109010458,0,0.840735077858,0,0
1.74362818971426E+018,2229,0,,-0.313109010458,0,0.840735077858,0,0
1.74362818974322E+018,2230,0,,-0.313109010458,0,0.840735077858,0,0
1.74362818976358E+018,2231,0,,-0.313109010458,0,0.840735077858,0,0
1.74362818979539E+018,2232,0,,-0.313109010458,0,0.840735077858,0,0
1.74362818981772E+018,2233,0,,-0.313109010458,0,0.840735077858,0,0
1.74362818984072E+018,2234,0,,-0.313109010458,0,0.840735077858,0,0
1.74362818986748E+018,2235,0,,-0.313109010458,0,0.840735077858,0,0
1.74362818989253E+018,2236,0,,-0.313109010458,0,0.840735077858,0,0
1.74362818991438E+018,2237,0,,-0.313109010458,0,0.840735077858,0,0
1.74362818994487E+018,2238,0,,-0.313109010458,0,0.840735077858,0,0
1.74362818996811E+018,2239,0,,-0.313109010458,0,0.840735077858,0,0
1.74362818999374E+018,2240,0,,-0.313109010458,0,0.840735077858,0,0
1.74362819001857E+018,2241,0,,-0.313109010458,0,0.840735077858,0,0
1.74362819004663E+018,2242,0,,-0.313109010458,0,0.840735077858,0,0
1.74362819007431E+018,2243,0,,-0.313109010458,0,0.840735077858,0,0
1.74362819009014E+018,2244,0,,-0.313109010458,0,0.840735077858,0,0
1.74362819012007E+018,2245,0,,-0.313109010458,0,0.840735077858,0,0
1.74362819014267E+018,2246,0,,-0.313109010458,0,0.840735077858,0,0
1.74362819016415E+018,2247,0,,-0.313109010458,0,0.840735077858,0,0
1.7436281901893E+018,2248,0,,-0.313109010458,0,0.840735077858,0,0
1.74362819021485E+018,2249,0,,-0.313109010458,0,0.840735077858,0,0
1.74362819024056E+018,2250,0,,-0.313109010458,0,0.840735077858,0,0
1.74362819026759E+018,2251,0,,-0.313109010458,0,0.840735077858,0,0
1.74362819029023E+018,2252,0,,-0.313109010458,0,0.840735077858,0,0
1.74362819031954E+018,2253,0,,-0.313109010458,0,0.840735077858,0,0
1.74362819034432E+018,2254,0,,-0.313109010458,0,0.840735077858,0,0
1.74362819036635E+018,2255,0,,-0.313109010458,0,0.840735077858,0,0
1.74362819039562E+018,2256,0,,-0.313109010458,0,0.840735077858,0,0
1.74362819041652E+018,2257,0,,-0.313109010458,0,0.840735077858,0,0
1.74362819043932E+018,2258,0,,-0.250873088837,0,0.840735077858,0,0
1.74362819046489E+018,2259,0,,-0.151850506663,0,0.840735077858,0,0
1.74362819048918E+018,2260,0,,-0.030196653679,0,0.840735077858,0,0
1.74362819051884E+018,2261,0,,0,0,0.840735077858,0,0
1.7436281905457E+018,2262,0,,0,0,0.965636193752,0,0
1.74362819056786E+018,2263,0,,0,0,0.965636193752,0,0
1.74362819058875E+018,2264,0,,0,0,0.965636193752,0,0
1.74362819061362E+018,2265,0,,0,0,0.965636193752,0,0
1.74362819063852E+018,2266,0,,0,0,0.965636193752,0,0
1.74362819067001E+018,2267,0,,0,0,0.965636193752,0,0
1.74362819069201E+018,2268,0,,0,0,0.965636193752,0,0
1.74362819071637E+018,2269,0,,0,0,0.990597128868,0,0
1.74362819074398E+018,2270,0,,0,0,0.990597128868,0,0
1.74362819076823E+018,2271,0,,0,0,0.990597128868,0,0
1.74362819078935E+018,2272,0,,0,0,0.990597128868,0,0
1.74362819081967E+018,2273,0,,0,0,0.990597128868,0,0
1.7436281908477E+018,2274,0,,0.00758725497872,0,0.990597128868,0,0
1.74362819086416E+018,2275,0,,0.0669942647219,0,0.990597128868,0,0
1.74362819088887E+018,2276,0,,0.123583294451,0,0.990597128868,0,0
1.74362819091893E+018,2277,0,,0.191477015615,0,0.990597128868,0,0
1.74362819094125E+018,2278,0,,0.248066052794,0,0.990597128868,0,0
1.74362819097062E+018,2279,0,,0.262210577726,0,0.990597128868,0,0
1.74362819098942E+018,2280,0,,0.267868369818,0,0.990597128868,0,0
1.74362819102181E+018,2281,0,,0.248066052794,0,0.990597128868,0,0
1.74362819104385E+018,2282,0,,0.154701247811,0,0.990597128868,0,0
1.74362819106471E+018,2283,0,,0.0217317808419,0,0.990597128868,0,0
1.74362819109135E+018,2284,0,,0,0,0.990597128868,0,0
1.74362819111385E+018,2285,0,,0,0,1.04051887989,0,0
1.74362819114487E+018,2286,0,,0,0,1.04051887989,0,0
1.74362819117162E+018,2287,0,,0,0,1.04051887989,0,0
1.74362819119195E+018,2288,0,,0,0,1.04051887989,0,0
1.74362819122017E+018,2289,0,,0,0,1.04051887989,0,0
1.74362819124223E+018,2290,0,,0,0,1.04051887989,0,0
1.74362819126888E+018,2291,0,,0,0,1.04051887989,0,0
1.74362819129066E+018,2292,0,,0,0,1.04051887989,0,0
1.74362819131374E+018,2293,0,,0,0,1.04051887989,0,0
1.74362819134525E+018,2294,0,,0,0,1.04051887989,0,0
1.7436281913705E+018,2295,0,,0,0,1.04051887989,0,0
1.74362819138946E+018,2296,0,,0,0,1.04051887989,0,0
1.74362819141606E+018,2297,0,,0,0,1.04051887989,0,0
1.74362819144501E+018,2298,0,,0,0,1.04051887989,0,0
1.74362819146592E+018,2299,0,,0,0,1.04051887989,0,0
1.7436281914956E+018,2300,0,,0,0,1.04051887989,0,0
1.74362819151481E+018,2301,0,,0,0,1.04051887989,0,0
1.74362819154145E+018,2302,0,,0,0,1.04051887989,0,0
1.7436281915639E+018,2303,0,,0,0,1.04051887989,0,0
1.74362819159084E+018,2304,0,,0,0,1.04051887989,0,0
1.74362819161886E+018,2305,0,,0,0,1.04051887989,0,0
1.74362819163999E+018,2306,0,,0,0,1.04051887989,0,0
1.74362819166342E+018,2307,0,,0,0,1.04051887989,0,0
1.74362819168861E+018,2308,0,,0,0,1.04051887989,0,0
1.74362819171358E+018,2309,0,,0,0,1.04051887989,0,0
1.74362819173955E+018,2310,0,,0,0,1.04051887989,0,0
1.7436281917692E+018,2311,0,,0,0,1.04051887989,0,0
1.74362819178854E+018,2312,0,,0,0,1.04051887989,0,0
1.74362819182089E+018,2313,0,,0,0,1.04051887989,0,0
1.74362819184214E+018,2314,0,,0,0,1.04051887989,0,0
1.74362819186405E+018,2315,0,,0,0,1.04051887989,0,0
1.74362819189379E+018,2316,0,,0,0,1.04051887989,0,0
1.74362819191767E+018,2317,0,,0,0,1.04051887989,0,0
1.74362819193921E+018,2318,0,,-0.103759109974,0,1.04051887989,0,0
1.74362819196772E+018,2319,0,,-0.25653091073,0,1.04051887989,0,0
1.74362819199361E+018,2320,0,,-0.290477782488,0,1.04051887989,0,0
1.74362819202059E+018,2321,0,,-0.290477782488,0,1.04051887989,0,0
1.74362819204078E+018,2322,0,,-0.290477782488,0,1.04051887989,0,0
1.74362819207154E+018,2323,0,,-0.290477782488,0,1.04051887989,0,0
1.74362819209215E+018,2324,0,,-0.290477782488,0,1.04051887989,0,0
1.7436281921215E+018,2325,0,,-0.290477782488,0,1.04051887989,0,0
1.74362819214173E+018,2326,0,,-0.290477782488,0,0.915714263916,0,0
1.74362819216891E+018,2327,0,,-0.290477782488,0,0.915714263916,0,0
1.74362819218869E+018,2328,0,,-0.290477782488,0,0.915714263916,0,0
1.74362819221418E+018,2329,0,,-0.290477782488,0,0.915714263916,0,0
1.74362819223916E+018,2330,0,,-0.290477782488,0,0.915714263916,0,0
1.74362819226474E+018,2331,0,,-0.290477782488,0,0.915714263916,0,0
1.74362819229082E+018,2332,0,,-0.290477782488,0,0.915714263916,0,0
1.7436281923216E+018,2333,0,,-0.290477782488,0,0.915714263916,0,0
1.74362819234577E+018,2334,0,,-0.290477782488,0,0.915714263916,0,0
1.74362819236644E+018,2335,0,,-0.290477782488,0,0.915714263916,0,0
1.74362819239365E+018,2336,0,,-0.290477782488,0,0.915714263916,0,0
1.74362819242118E+018,2337,0,,-0.290477782488,0,0.915714263916,0,0
1.74362819244363E+018,2338,0,,-0.290477782488,0,0.915714263916,0,0
1.74362819246406E+018,2339,0,,-0.290477782488,0,0.915714263916,0,0
1.74362819249105E+018,2340,0,,-0.290477782488,0,0.915714263916,0,0
1.74362819252131E+018,2341,0,,-0.290477782488,0,0.915714263916,0,0
1.74362819254247E+018,2342,0,,-0.290477782488,0,0.915714263916,0,0
1.74362819256586E+018,2343,0,,-0.290477782488,0,0.915714263916,0,0
1.74362819259167E+018,2344,0,,-0.290477782488,0,0.915714263916,0,0
1.74362819262228E+018,2345,0,,-0.290477782488,0,0.915714263916,0,0
1.74362819264675E+018,2346,0,,-0.290477782488,0,0.915714263916,0,0
1.74362819266723E+018,2347,0,,-0.290477782488,0,0.915714263916,0,0
1.74362819268907E+018,2348,0,,-0.290477782488,0,0.915714263916,0,0
1.7436281927192E+018,2349,0,,-0.290477782488,0,0.915714263916,0,0
